"ID","State","Name","County","Lat","Lon","Combust","Fuel","FuelCat","Capacity","HeatInput","NetGen","NOX","SO2","CO2","CoalGen","OilGen","GasGen","NuclearGen","HydroGen","BiomassGen","WindGen","SolarGen","GeoGen","OtherFossilGen","OtherGen","NonRenewGen","RenewGen","CombGen","NonCombGen","CoalPortion","CapFac","SO2OutRate","CO2OutRate","NOXOutRate","NOXInRate","CO2InRate","SO2InRate"
1,"AK","Alakanuk","Wade Hampton",62.6833,-164.6544,1,"JF","OIL",1.3,15801.5,1859,19.26,0,1262.7,0,1859,0,0,0,0,0,0,0,0,0,1859,0,1859,0,0,0.16324200913242,0,0.679236148466918,0.0103604088219473,0.00121887162611145,0.079910135113755,0
2,"AK","Anchorage 1","Anchorage",61.2328,-149.8909,1,"NG","GAS",103.1,666135,55428,92,1.32,39074.5,0,366.5,55061.5,0,0,0,0,0,0,0,0,55428,0,55428,0,0,0.0613714574226379,2.38146785018402e-05,0.704959587212239,0.00165981092588583,0.000138110142838914,0.0586585301778168,1.98158031029746e-06
3,"AK","Angoon","Juneau",57.8425,-134.9772,1,"DFO","OIL",1.5,16388,1928,19.98,0.66,1340.7,0,1928,0,0,0,0,0,0,0,0,0,1928,0,1928,0,0,0.146727549467275,0.000342323651452282,0.695383817427386,0.0103630705394191,0.00121918476934342,0.0818098608738101,4.0273370759092e-05
4,"AK","Aniak","Bethel",61.5875,-159.5317,1,"DFO","OIL",1.1,28860,2725,35.18,1.19,2361.1,0,2725,0,0,0,0,0,0,0,0,0,2725,0,2725,0,0,0.282793690327937,0.000436697247706422,0.86645871559633,0.0129100917431193,0.00121898821898822,0.0818121968121968,4.12335412335412e-05
5,"AK","Annex Creek","Juneau",58.3167,-134.0958,0,"WAT","HYDRO",4,0,26436,0,0,0,0,0,0,0,26436,0,0,0,0,0,0,0,26436,0,26436,0,0.754452054794521,0,0,0,NA,NA,NA
6,"AK","Auke Bay","Juneau",58.3861,-134.6389,1,"DFO","OIL",36.2,5506,335,0.99,0.23,450.5,0,335,0,0,0,0,0,0,0,0,0,335,0,335,0,0,0.0010564090920558,0.000686567164179104,1.34477611940299,0.00295522388059701,0.000179803850345078,0.0818198329095532,4.17726116963313e-05
7,"AK","Aurora Energy LLC Chena","Fairbanks",64.8461,-147.7286,1,"SUB","COAL",29,3229698.2,204196,1278.31,581.4,347748.2,204196,0,0,0,0,0,0,0,0,0,0,204196,0,204196,0,1,0.803794678003464,0.00284726439303414,1.70301181218045,0.00626021077788008,0.000395798591955124,0.107672041926394,0.000180016820147468
8,"AK","Barrow","North Slope",71.2789,-156.7981,1,"NG","GAS",20.3,423325.5,49803,58.42,0.74,24766.4,0,0,49803,0,0,0,0,0,0,0,0,49803,0,49803,0,0,0.280062757271071,1.48585426580728e-05,0.497287312009317,0.00117302170551975,0.000138002553590559,0.0585043896481549,1.74806384212621e-06
9,"AK","Beaver Falls","Ketchikan",55.3633,-131.6778,0,"WAT","HYDRO",5.4,0,40956,0,0,0,0,0,0,0,40956,0,0,0,0,0,0,0,40956,0,40956,0,0.865804160324708,0,0,0,NA,NA,NA
10,"AK","Beluga","Kenai Peninsula",61.1861,-151.0356,1,"NG","GAS",374.4,23485485,2240960,2377.01,41.1,1374006.2,0,0,2240960,0,0,0,0,0,0,0,0,2240960,0,2240960,0,0,0.683272840807087,1.83403541339426e-05,0.613132853776953,0.00106071058831929,0.000101211876186504,0.0585044847913509,1.75001708502081e-06
11,"AK","Bernice Lake","Kenai Peninsula",60.6935,-151.3874,1,"NG","GAS",76.7,461686,24555,63.71,0.81,27010.7,0,0,24555,0,0,0,0,0,0,0,0,24555,0,24555,0,0,0.0365460520440785,3.29871716554673e-05,1.10000814498066,0.00259458358786398,0.000137994221180629,0.0585044814007789,1.75443916428049e-06
12,"AK","Bethel","Bethel",60.7897,-161.7878,1,"DFO","OIL",12.6,356371,41926,434.42,15.18,29155.5,0,41926,0,0,0,0,0,0,0,0,0,41926,0,41926,0,0,0.379847068203233,0.000362066498115728,0.695403806707055,0.0103615894671564,0.00121901052554781,0.0818122125537712,4.25960586018503e-05
13,"AK","Black Bear Lake","Prince of Wales",55.4764,-133.1483,0,"WAT","HYDRO",4.5,0,20822,0,0,0,0,0,0,0,20822,0,0,0,0,0,0,0,20822,0,20822,0,0.528209030948757,0,0,0,NA,NA,NA
14,"AK","Blue Lake","Sitka",57.0516,-135.2297,0,"WAT","HYDRO",7,0,58422,0,0,0,0,0,0,0,58422,0,0,0,0,0,0,0,58422,0,58422,0,0.952739726027397,0,0,0,NA,NA,NA
15,"AK","Bradley Lake","Kenai Peninsula",59.7554,-150.8511,0,"WAT","HYDRO",126,0,348271,0,0,0,0,0,0,0,348271,0,0,0,0,0,0,0,348271,0,348271,0,0.315531456113648,0,0,0,NA,NA,NA
16,"AK","Chester Lake","Ketchikan",55.1139,-131.5481,0,"WAT","HYDRO",1,0,3130,0,0,0,0,0,0,0,3130,0,0,0,0,0,0,0,3130,0,3130,0,0.357305936073059,0,0,0,NA,NA,NA
17,"AK","Cooper Lake","Kenai Peninsula",60.4908,-149.8158,0,"WAT","HYDRO",19.4,0,45390,0,0,0,0,0,0,0,45390,0,0,0,0,0,0,0,45390,0,45390,0,0.267087981923457,0,0,0,NA,NA,NA
18,"AK","Delta Power","Fairbanks",64.0283,-145.7181,1,"DFO","OIL",23.1,3246,13,0.5,0.14,265.6,0,13,0,0,0,0,0,0,0,0,0,13,0,13,0,0,6.42432149281464e-05,0.0107692307692308,20.4307692307692,0.0384615384615385,0.000154035736290819,0.0818237831176833,4.31300061614295e-05
19,"AK","Dillingham","Dillingham",59.6708,-157.89,1,"DFO","OIL",6.9,179721,19143,219.08,7.34,14703.3,0,19143,0,0,0,0,0,0,0,0,0,19143,0,19143,0,0,0.316706372840977,0.000383429974403176,0.76807710390221,0.0114443922060283,0.00121900056198218,0.0818118083028694,4.08410814540315e-05
20,"AK","Dutch Harbor","Aleutians West",53.9761,-166.5361,1,"DFO","OIL",21.6,262161,28270,319.57,10.78,21447.9,0,28270,0,0,0,0,0,0,0,0,0,28270,0,28270,0,0,0.149405969896837,0.000381322957198444,0.758680580120269,0.0113042094092678,0.00121898375425788,0.0818119399910742,4.11197699123821e-05
21,"AK","Eielson AFB Central Heat & Power Plant","Fairbanks",64.6711,-147.0719,1,"SUB","COAL",33.5,396826.5,69647,159.46,104.14,42667.9,68398,1249,0,0,0,0,0,0,0,0,0,69647,0,69647,0,0.982066707826611,0.237330470933006,0.00149525464126237,0.612630838370641,0.00228954585265697,0.00040183808289013,0.107522809086591,0.000262432070438844
22,"AK","Eklutna Hydro Project","Matanuska-Susitna",61.605,-149.1192,0,"WAT","HYDRO",44.4,0,74203,0,0,0,0,0,0,0,74203,0,0,0,0,0,0,0,74203,0,74203,0,0.190780677938212,0,0,0,NA,NA,NA
23,"AK","Elim","Nome",64.6206,-162.2772,1,"JF","OIL",1.6,10913,1137,13.3,0,872.1,0,1137,0,0,0,0,0,0,0,0,0,1137,0,1137,0,0,0.0811215753424658,0,0.767018469656992,0.0116974494283201,0.00121872995509942,0.0799138641986621,0
24,"AK","Emmonak","Bethel",62.8719,-164.4864,1,"JF","OIL",2.2,26511.5,3119,32.32,0,2118.6,0,3119,0,0,0,0,0,0,0,0,0,3119,0,3119,0,0,0.16184101286841,0,0.679256171849952,0.0103622956075665,0.00121909360089018,0.0799124908058767,0
25,"AK","Fairbanks","Fairbanks",64.8547,-147.7164,1,"RFO","OIL",42.2,238273,10318,37.87,0.2,19786.2,0,10318,0,0,0,0,0,0,0,0,0,10318,0,10318,0,0,0.0279112294141834,1.93836014731537e-05,1.91763907734057,0.00367028493894166,0.000158935338875995,0.0830400423044155,8.39373323876394e-07
26,"AK","False Island","Prince of Wales",55.4889,-133.1339,1,"DFO","OIL",1.3,2929,295,3.57,0.12,239.6,0,295,0,0,0,0,0,0,0,0,0,295,0,295,0,0,0.0259044608359677,0.000406779661016949,0.812203389830508,0.0121016949152542,0.00121884602253329,0.0818026630249232,4.09696142027996e-05
27,"AK","Fort Greely Power Plant","Southeast Fairbanks",63.0947,-145.7172,1,"DFO","OIL",10.4,5069.4,507.6,6.18,0.21,414.7,0,507.6,0,0,0,0,0,0,0,0,0,507.6,0,507.6,0,0,0.00557165437302424,0.00041371158392435,0.816981875492514,0.0121749408983452,0.00121907918096816,0.0818045528070383,4.14250207125104e-05
28,"AK","Galena Electric Utility","Yukon-Koyukuk",64.7407,-156.9551,1,"DFO","OIL",5,51187,6022,62.4,2.15,4187.7,0,6022,0,0,0,0,0,0,0,0,0,6022,0,6022,0,0,0.137488584474886,0.000357024244437064,0.695400199269346,0.0103620059780804,0.00121905952683298,0.0818117881493348,4.20028522867134e-05
29,"AK","Gambell","Nome",63.7667,-171.7375,1,"JF","OIL",1.6,13160,1557,16.04,0,1051.6,0,1557,0,0,0,0,0,0,0,0,0,1557,0,1557,0,0,0.111087328767123,0,0.675401412973667,0.0103018625561978,0.00121884498480243,0.0799088145896656,0
30,"AK","George M Sullivan Generation Plant 2","Anchorage",61.1344,-149.0846,1,"NG","GAS",266.3,11153419,1048415,954.08,19.36,652654.3,0,531.8,1047883.2,0,0,0,0,0,0,0,0,1048415,0,1048415,0,0,0.449425751504209,1.84659700595661e-05,0.622515225364002,0.000910021317894155,8.55414828403739e-05,0.0585160747569871,1.73579061272602e-06
31,"AK","Glennallen","Valdez-Cordova",61.9769,-146.5494,1,"DFO","OIL",10.7,64913,5336,79.13,2.67,5310.7,0,5336,0,0,0,0,0,0,0,0,0,5336,0,5336,0,0,0.0569282635599368,0.000500374812593703,0.995258620689655,0.0148294602698651,0.00121901622171214,0.081812579914655,4.11319766456642e-05
32,"AK","Goat Lake Hydro","Skagway-Hoonah-Angoon",59.455,-135.3264,0,"WAT","HYDRO",4,0,15705,0,0,0,0,0,0,0,15705,0,0,0,0,0,0,0,15705,0,15705,0,0.448202054794521,0,0,0,NA,NA,NA
33,"AK","Gold Creek","Juneau",58.3,-134.4061,0.5,"DFO","HYDRO",9.7,244,4547,0.3,0.01,20,0,17,0,0,4530,0,0,0,0,0,0,17,4530,17,4530,0,0.0535117450454267,2.19925225423356e-06,0.00439850450846712,6.59775676270068e-05,0.00122950819672131,0.0819672131147541,4.0983606557377e-05
34,"AK","Green Lake","Sitka",56.9858,-135.1211,0,"WAT","HYDRO",18.6,0,58101,0,0,0,0,0,0,0,58101,0,0,0,0,0,0,0,58101,0,58101,0,0.356587862719104,0,0,0,NA,NA,NA
35,"AK","Gwitchyaa Zhee","Yukon-Koyukuk",66.5208,-145.3064,1,"DFO","OIL",2.2,22933,2698,27.96,0.94,1876.2,0,2698,0,0,0,0,0,0,0,0,0,2698,0,2698,0,0,0.139995848899959,0.000348406226834692,0.695404002965159,0.0103632320237213,0.00121920376749662,0.0818122356429599,4.0988967862905e-05
36,"AK","Healy","Denali",63.8542,-148.95,1,"WC","COAL",30.8,1910762.8,189785,241.89,255.46,202185.8,189476.7,308.3,0,0,0,0,0,0,0,0,0,189785,0,189785,0,0.998375530205232,0.703407608373362,0.00134604947703981,1.06534130726875,0.00127454751429249,0.000126593421224236,0.10581418059845,0.000133695296977731
37,"AK","Hoonah","Sitka",58.1833,-135.7433,1,"DFO","OIL",2.4,45712,4562,55.72,1.85,3739.8,0,4562,0,0,0,0,0,0,0,0,0,4562,0,4562,0,0,0.216990106544901,0.000405523893029373,0.819772029811486,0.012213941253836,0.00121893594679734,0.0818122156107805,4.04707735386769e-05
38,"AK","Hooper Bay","Bethel",61.5208,-166.1003,1,"JF","OIL",1.6,25403,2607,30.97,0,2030,0,2607,0,0,0,0,0,0,0,0,0,2607,0,2607,0,0,0.186001712328767,0,0.77867280398926,0.011879555044112,0.0012191473448018,0.0799118214384128,0
39,"AK","International","Anchorage",61.1703,-149.9103,1,"NG","GAS",46.3,44550,1298,6.15,0.08,2606.4,0,0,1298,0,0,0,0,0,0,0,0,1298,0,1298,0,0,0.00320029192185173,6.1633281972265e-05,2.00801232665639,0.00473805855161787,0.000138047138047138,0.0585050505050505,1.79573512906846e-06
40,"AK","Kake","Wrangell-Petersburg",56.1522,-133.1519,1,"DFO","OIL",2.5,20332,2392,24.78,0.82,1663.4,0,2392,0,0,0,0,0,0,0,0,0,2392,0,2392,0,0,0.109223744292237,0.000342809364548495,0.695401337792642,0.0103595317725753,0.00121876844383238,0.081811922093252,4.03305134762935e-05
41,"AK","Kasidaya Creek Hydro","Skagway-Hoonah-Angoon",59.4072,-135.3408,0,"WAT","HYDRO",3,0,7266,0,0,0,0,0,0,0,7266,0,0,0,0,0,0,0,7266,0,7266,0,0.27648401826484,0,0,0,NA,NA,NA
42,"AK","Kasigluk","Bethel",60.8731,-162.5197,1,"JF","OIL",1.6,19793,2181,24.13,0,1581.7,0,2181,0,0,0,0,0,0,0,0,0,2181,0,2181,0,0,0.155607876712329,0,0.725217790004585,0.0110637322329207,0.00121911786995402,0.0799120901328753,0
43,"AK","Ketchikan","Ketchikan",55.3633,-131.6778,0,"WAT","HYDRO",4.2,0,23338,0,0,0,0,0,0,0,23338,0,0,0,0,0,0,0,23338,0,23338,0,0.634322678843227,0,0,0,NA,NA,NA
44,"AK","Kiana","Northwest Arctic",67.5683,-160.5053,1,"JF","OIL",1.1,15274,1515,18.62,0,1220.6,0,1515,0,0,0,0,0,0,0,0,0,1515,0,1515,0,0,0.157222914072229,0,0.805676567656766,0.0122904290429043,0.00121906507791017,0.0799135786303522,0
45,"AK","King Cove","Aleutians East",55.7272,-160.7167,1,"DFO","OIL",2.6,37461,4480.6,45.67,1.47,3064.8,0,4480.6,0,0,0,0,0,0,0,0,0,4480.6,0,4480.6,0,0,0.196724622409554,0.000328081060572245,0.684015533633888,0.0101928313172343,0.00121913456661595,0.0818130856090334,3.92408104428606e-05
46,"AK","Kivalina","Northwest Arctic",67.63,-163.7189,1,"JF","OIL",1.1,10300,1202,12.56,0,823.1,0,1202,0,0,0,0,0,0,0,0,0,1202,0,1202,0,0,0.124740556247406,0,0.68477537437604,0.0104492512479201,0.00121941747572816,0.0799126213592233,0
47,"AK","Kodiak","Kodiak Island",57.785,-152.4247,1,"DFO","OIL",22.3,98240,9766,119.75,4.03,8037.2,0,9766,0,0,0,0,0,0,0,0,0,9766,0,9766,0,0,0.0499928333026189,0.000412656154003686,0.822977677657178,0.012261929141921,0.00121895358306189,0.0818118892508143,4.1021986970684e-05
48,"AK","Kotlik","Wade Hampton",62.9456,-163.7614,1,"JF","OIL",1.4,15247,1944,18.59,0,1218.4,0,1944,0,0,0,0,0,0,0,0,0,1944,0,1944,0,0,0.158512720156556,0,0.626748971193416,0.00956275720164609,0.00121925624713058,0.0799108021250082,0
49,"AK","Kotzebue","Northwest Arctic",66.2053,-160.2692,0.5,"DFO","OIL",14.6,176443,20759,215.08,7.02,14435.2,0,20758,0,0,0,0,1,0,0,0,0,20758,1,20758,1,0,0.162311565647088,0.000338166578351558,0.695370682595501,0.0103608073606628,0.00121897723344083,0.0818122566494562,3.97862199123796e-05
50,"AK","Koyuk","Nome",64.93,-161.16,1,"JF","OIL",1.1,11619.5,1367,14.16,0,928.5,0,1367,0,0,0,0,0,0,0,0,0,1367,0,1367,0,0,0.141863843918638,0,0.679224579370885,0.0103584491587418,0.00121864107749903,0.0799087740436335,0
51,"AK","Lake Dorothy Hydroelectric Project","Juneau",58.2325,-134.0533,0,"WAT","HYDRO",14.3,0,58741,0,0,0,0,0,0,0,58741,0,0,0,0,0,0,0,58741,0,58741,0,0.468922629881534,0,0,0,NA,NA,NA
52,"AK","McGrath","Yukon-Koyukuk",63.2369,-154.2194,1,"DFO","OIL",3.2,23256,2736,28.35,1.01,1902.6,0,2736,0,0,0,0,0,0,0,0,0,2736,0,2736,0,0,0.0976027397260274,0.000369152046783626,0.695394736842105,0.0103618421052632,0.00121904024767802,0.0818111455108359,4.34296525627795e-05
53,"AK","Mountain Village","Bethel",62.1656,-163.0783,1,"JF","OIL",1.7,29812,2805,36.34,0,2382.4,0,2805,0,0,0,0,0,0,0,0,0,2805,0,2805,0,0,0.188356164383562,0,0.849340463458111,0.0129554367201426,0.00121897222594928,0.0799141285388434,0
54,"AK","Naknek","Bristol Bay",58.8128,-156.7319,1,"DFO","OIL",9.9,178066.5,20949,217.06,7.29,14568,0,20949,0,0,0,0,0,0,0,0,0,20949,0,20949,0,0,0.241559429915594,0.000347987970786195,0.695403121867392,0.0103613537639028,0.00121898279575327,0.0818121319843991,4.09397612689641e-05
55,"AK","New Halen","Lake and Peninsula",60.065,-153.1217,1,"DFO","OIL",1.5,5316,411,6.48,0.22,434.9,0,411,0,0,0,0,0,0,0,0,0,411,0,411,0,0,0.0312785388127854,0.000535279805352798,1.05815085158151,0.0157664233576642,0.00121896162528217,0.0818096313017306,4.13844996237773e-05
56,"AK","Nikiski Co-Generation","Kenai Peninsula",60.5619,-150.6222,1,"NG","GAS",37.9,2254608,265248,311.14,3.95,131904.7,0,0,265248,0,0,0,0,0,0,0,0,265248,0,265248,0,0,0.798930133371887,1.48917239715285e-05,0.497288198214501,0.00117301544215225,0.000138001816723794,0.0585044939075884,1.75196752606218e-06
57,"AK","Noatak","Northwest Arctic",67.57,-162.98,1,"JF","OIL",1.2,20881,1807,25.45,0,1668.7,0,1807,0,0,0,0,0,0,0,0,0,1807,0,1807,0,0,0.171898782343988,0,0.923464305478694,0.0140841173215274,0.00121881135960921,0.0799147550404674,0
58,"AK","Noorvik","Northwest Arctic",66.8553,-160.4958,1,"JF","OIL",1,17284,1998,21.07,0,1381.2,0,1998,0,0,0,0,0,0,0,0,0,1998,0,1998,0,0,0.228082191780822,0,0.691291291291291,0.0105455455455455,0.00121904651700995,0.0799120573941217,0
59,"AK","North Pole","Fairbanks",64.7356,-147.3481,1,"JF","OIL",181,4460957,520322,691.45,0.75,361473.5,0,520322,0,0,0,0,0,0,0,0,0,520322,0,520322,0,0,0.328162920356215,1.44141512371186e-06,0.694711159628077,0.00132888864972075,0.000155000373238298,0.0810304829210414,1.68125359648165e-07
60,"AK","Northway","Southeast Fairbanks",62.9617,-141.9372,1,"DFO","OIL",1.1,13535,1257,16.5,0.55,1107.3,0,1257,0,0,0,0,0,0,0,0,0,1257,0,1257,0,0,0.130448318804483,0.000437549721559268,0.88090692124105,0.013126491646778,0.00121906169190986,0.0818101219061692,4.06353897303288e-05
61,"AK","NSB Anaktuvuk Pass","North Slope",68.7494,-152.1319,1,"DFO","OIL",2.8,27650.5,3253,33.71,1.13,2262.1,0,3253,0,0,0,0,0,0,0,0,0,3253,0,3253,0,0,0.132623939986954,0.000347371656932063,0.695388871810636,0.0103627420842299,0.00121914612755646,0.0818104555071337,4.08672537567133e-05
62,"AK","NSB Atquasuk Utility","North Slope",70.4808,-157.3969,1,"DFO","OIL",3.2,25406.5,2989,30.97,1.04,2078.6,0,2989,0,0,0,0,0,0,0,0,0,2989,0,2989,0,0,0.106628139269406,0.000347942455670793,0.695416527266644,0.010361324857812,0.0012189793950367,0.0818137090901934,4.09344065495051e-05
63,"AK","NSB Kaktovik Utility","North Slope",69.2925,-143.7303,1,"DFO","OIL",2.6,34765,4090,42.38,1.42,2844.2,0,4090,0,0,0,0,0,0,0,0,0,4090,0,4090,0,0,0.179574991218827,0.00034718826405868,0.695403422982885,0.010361858190709,0.00121904214008342,0.0818121674097512,4.08456781245506e-05
64,"AK","NSB Point Hope Utility","North Slope",69.7407,-163.0087,1,"DFO","OIL",2.7,46546,5476,56.74,1.9,3808,0,5476,0,0,0,0,0,0,0,0,0,5476,0,5476,0,0,0.231523761204126,0.000346968590211833,0.695398100803506,0.0103615777940102,0.0012190091522365,0.0818115412710007,4.08198341425686e-05
65,"AK","NSB Point Lay Utility","North Slope",69.6931,-169.9303,1,"DFO","OIL",1.8,30838,3628,37.59,1.26,2522.9,0,3628,0,0,0,0,0,0,0,0,0,3628,0,3628,0,0,0.230086250634196,0.000347298787210584,0.695396912899669,0.0103610804851158,0.00121895064530774,0.0818114015176081,4.0858680848304e-05
66,"AK","NSB Wainwright Utility","North Slope",70.5986,-160.0614,1,"DFO","OIL",3,45058.5,5301,54.93,1.84,3686.3,0,5301,0,0,0,0,0,0,0,0,0,5301,0,5301,0,0,0.201712328767123,0.000347104319939634,0.695397094887757,0.0103621958121109,0.00121908186024834,0.0818114229279714,4.08358023458393e-05
67,"AK","Orca","Valdez-Cordova",60.555,-145.7531,1,"DFO","OIL",10.7,95989,8269,117.01,4.16,7853.1,0,8269,0,0,0,0,0,0,0,0,0,8269,0,8269,0,0,0.0882196048307942,0.000503083806989963,0.949703712661749,0.0141504414076672,0.00121899384304452,0.0818124993488837,4.33382991801144e-05
68,"AK","Pelican","Skagway-Hoonah-Angoon",57.9594,-136.2261,1,"DFO","OIL",2.9,9667,812,11.78,0.39,790.9,0,812,0,0,0,0,0,0,0,0,0,812,0,812,0,0,0.0319634703196347,0.000480295566502463,0.974014778325123,0.0145073891625616,0.00121857866970104,0.0818144201924072,4.03434364332264e-05
69,"AK","Petersburg","Wrangell-Petersburg",56.5583,-133.2544,0.5,"DFO","HYDRO",12.3,6588,11513.1,8.03,0.27,539,0,633.1,0,0,10880,0,0,0,0,0,0,633.1,10880,633.1,10880,0,0.106852099342911,2.34515464992053e-05,0.0468162354187838,0.000697466364402289,0.00121888281724347,0.0818154219793564,4.0983606557377e-05
70,"AK","Pillar Mountain Wind Project","Kodiak Island",57.7869,-152.4406,0,"WND","WIND",4.5,0,12606,0,0,0,0,0,0,0,0,0,12606,0,0,0,0,0,12606,0,12606,0,0.319786910197869,0,0,0,NA,NA,NA
71,"AK","Pilot Station","Wade Hampton",61.9381,-162.875,1,"JF","OIL",1.2,16948,1703,20.66,0,1354.4,0,1703,0,0,0,0,0,0,0,0,0,1703,0,1703,0,0,0.162005327245053,0,0.795302407516148,0.0121315325895479,0.00121902289355676,0.0799150342223271,0
72,"AK","Power Creek","Valdez-Cordova",60.59,-145.5956,0,"WAT","HYDRO",6,0,17599,0,0,0,0,0,0,0,17599,0,0,0,0,0,0,0,17599,0,17599,0,0.334836377473364,0,0,0,NA,NA,NA
73,"AK","Purple Lake","Ketchikan",55.1139,-131.5481,0,"WAT","HYDRO",3.9,0,16239,0,0,0,0,0,0,0,16239,0,0,0,0,0,0,0,16239,0,16239,0,0.475324903407095,0,0,0,NA,NA,NA
74,"AK","Quinhagak","Bethel",59.7539,-161.9008,1,"JF","OIL",1.1,17190,1631,20.95,0,1373.7,0,1631,0,0,0,0,0,0,0,0,0,1631,0,1631,0,0,0.169261104192611,0,0.842244022072348,0.012844880441447,0.00121873182082606,0.079912739965096,0
75,"AK","Salmon Creek 1","Juneau",58.3261,-134.4625,0,"WAT","HYDRO",8.5,0,24201,0,0,0,0,0,0,0,24201,0,0,0,0,0,0,0,24201,0,24201,0,0.325020145044319,0,0,0,NA,NA,NA
76,"AK","Savoonga","Nome",63.25,-169.5889,1,"JF","OIL",1.7,15053.5,1771,18.35,0,1203,0,1771,0,0,0,0,0,0,0,0,0,1771,0,1771,0,0,0.118922911630406,0,0.679277244494636,0.0103613777526821,0.0012189856179626,0.0799149699405454,0
77,"AK","Scammon Bay","Wade Hampton",61.79,-165.0689,1,"JF","OIL",1.3,14195,1670,17.3,0,1134.4,0,1670,0,0,0,0,0,0,0,0,0,1670,0,1670,0,0,0.146645591851071,0,0.679281437125749,0.0103592814371257,0.00121873899260303,0.0799154631912645,0
78,"AK","Selawik","Northwest Arctic",66.5569,-160.1431,1,"JF","OIL",1.6,25233,2714,30.76,0,2016.4,0,2714,0,0,0,0,0,0,0,0,0,2714,0,2714,0,0,0.193635844748858,0,0.742962417096537,0.0113338246131172,0.00121903856061507,0.0799112273609955,0
79,"AK","Seldovia","Kenai Peninsula",59.4373,-151.715,1,"DFO","OIL",2.4,1599,202,1.95,0.06,130.8,0,202,0,0,0,0,0,0,0,0,0,202,0,202,0,0,0.00960806697108067,0.000297029702970297,0.647524752475248,0.00965346534653465,0.00121951219512195,0.0818011257035647,3.75234521575985e-05
80,"AK","Seward","Kenai Peninsula",60.1083,-149.4417,1,"DFO","OIL",18.6,7286,678,8.88,0.31,596.1,0,678,0,0,0,0,0,0,0,0,0,678,0,678,0,0,0.0041611430254824,0.000457227138643068,0.879203539823009,0.0130973451327434,0.00121877573428493,0.0818144386494647,4.25473510842712e-05
81,"AK","Shishmaref","Nome",65.0853,-165.1108,1,"JF","OIL",1.4,21217,1603,25.86,0,1695.5,0,1603,0,0,0,0,0,0,0,0,0,1603,0,1603,0,0,0.130707762557078,0,1.0577043044292,0.0161322520274485,0.00121883395390489,0.0799123344487911,0
82,"AK","Shungnak","Northwest Arctic",66.71,-156.9889,1,"JF","OIL",1.2,12903,1518,15.73,0,1031.1,0,1518,0,0,0,0,0,0,0,0,0,1518,0,1518,0,0,0.144406392694064,0,0.679249011857707,0.0103623188405797,0.00121909633418585,0.0799116484538479,0
83,"AK","Silvis","Ketchikan",55.3633,-131.6778,0,"WAT","HYDRO",2.1,0,11368,0,0,0,0,0,0,0,11368,0,0,0,0,0,0,0,11368,0,11368,0,0.617960426179604,0,0,0,NA,NA,NA
84,"AK","Skagway","Skagway-Hoonah-Angoon",59.4583,-135.3139,0.5,"DFO","HYDRO",4.4,466,3518,0.57,0.02,38.1,0,-51,0,0,3569,0,0,0,0,0,0,-51,3569,-51,3569,0,0.0912723121627231,5.68504832291074e-06,0.010830017055145,0.000162023877202956,0.00122317596566524,0.0817596566523605,4.29184549356223e-05
85,"AK","Snake River","Nome",64.5033,-165.4357,1,"DFO","OIL",20.5,287266,33796,350.18,11.72,23501.8,0,33796,0,0,0,0,0,0,0,0,0,33796,0,33796,0,0,0.188194676467313,0.00034678660196473,0.695401822700911,0.0103615812522192,0.00121900955908461,0.0818119791412837,4.07984237605564e-05
86,"AK","Snettisham","Juneau",58.1389,-133.7264,0,"WAT","HYDRO",78.2,0,285665,0,0,0,0,0,0,0,285665,0,0,0,0,0,0,0,285665,0,285665,0,0.417009716334419,0,0,0,NA,NA,NA
87,"AK","Solomon Gulch","Valdez-Cordova",61.0811,-146.8572,0,"WAT","HYDRO",12,0,44758,0,0,0,0,0,0,0,44758,0,0,0,0,0,0,0,44758,0,44758,0,0.425780060882801,0,0,0,NA,NA,NA
88,"AK","South Fork","Prince of Wales",55.55,-132.9,0,"WAT","HYDRO",2,0,5757,0,0,0,0,0,0,0,5757,0,0,0,0,0,0,0,5757,0,5757,0,0.328595890410959,0,0,0,NA,NA,NA
89,"AK","St Marys","Bethel",62.0636,-163.2658,1,"JF","OIL",6.5,26681.5,3139,32.52,0,2132.2,0,3139,0,0,0,0,0,0,0,0,0,3139,0,3139,0,0,0.0551282051282051,0,0.67926091111819,0.0103599872570882,0.00121882203024568,0.0799130483668459,0
90,"AK","St. Michael","Nome",63.4775,-162.0383,1,"JF","OIL",1,14696.5,1729,17.92,0,1174.4,0,1729,0,0,0,0,0,0,0,0,0,1729,0,1729,0,0,0.197374429223744,0,0.679236552920763,0.0103643724696356,0.00121933793760419,0.0799101826965604,0
91,"AK","Stebbins","Nome",63.47,-162.2489,1,"JF","OIL",1.2,14171,1376,17.27,0,1132.4,0,1376,0,0,0,0,0,0,0,0,0,1376,0,1376,0,0,0.13089802130898,0,0.82296511627907,0.0125508720930233,0.00121868604897326,0.0799096746877426,0
92,"AK","Swan Lake","Ketchikan",55.3633,-131.6778,0,"WAT","HYDRO",22.4,0,91977,0,0,0,0,0,0,0,91977,0,0,0,0,0,0,0,91977,0,91977,0,0.468734711350294,0,0,0,NA,NA,NA
93,"AK","Terror Lake","Kodiak Island",57.7911,-152.4058,0,"WAT","HYDRO",22.4,0,123964,0,0,0,0,0,0,0,123964,0,0,0,0,0,0,0,123964,0,123964,0,0.631747390737117,0,0,0,NA,NA,NA
94,"AK","Tesoro Alaska Petroleum","Kenai Peninsula",60.677,-151.3815,1,"NG","GAS",8,872187,64575.1,120.36,1.65,51026.9,0,0,64575.1,0,0,0,0,0,0,0,0,64575.1,0,64575.1,0,0,0.921448344748858,2.55516445193271e-05,0.790194672559547,0.00186387632384619,0.000137997929343134,0.0585045408840077,1.89179614004795e-06
95,"AK","Thorne Bay Plant","Prince of Wales",55.5156,-132.9672,1,"DFO","OIL",1,768,9,0.94,0.03,62.8,0,9,0,0,0,0,0,0,0,0,0,9,0,9,0,0,0.00102739726027397,0.00333333333333333,6.97777777777778,0.104444444444444,0.00122395833333333,0.0817708333333333,3.90625e-05
96,"AK","Togiak","Dillingham",59.2281,-160.385,1,"JF","OIL",1.3,24692.5,2905,30.1,0,1973.2,0,2905,0,0,0,0,0,0,0,0,0,2905,0,2905,0,0,0.255093080435546,0,0.679242685025818,0.0103614457831325,0.001218993621545,0.0799109041206844,0
97,"AK","Tok","Southeast Fairbanks",63.3367,-142.9856,1,"DFO","OIL",7.6,108894,11026,132.74,4.44,8908.8,0,11026,0,0,0,0,0,0,0,0,0,11026,0,11026,0,0,0.165615236721942,0.000402684563758389,0.807981135497914,0.0120388173408308,0.00121898359872904,0.0818116700644664,4.07735963413962e-05
98,"AK","Toksook Bay","Bethel",60.6,-164.7489,1,"JF","OIL",1.7,27551,2612,33.58,0,2201.7,0,2612,0,0,0,0,0,0,0,0,0,2612,0,2612,0,0,0.175396185871609,0,0.84291730474732,0.0128560490045942,0.00121883053246706,0.0799136147508257,0
99,"AK","Unalakleet","Matanuska-Susitna",63.5325,-160.9006,1,"DFO","OIL",3.6,32104.5,3777,39.14,1.34,2626.5,0,3777,0,0,0,0,0,0,0,0,0,3777,0,3777,0,0,0.119767884322679,0.000354778925072809,0.69539316918189,0.0103627217368282,0.00121914373374449,0.0818109610802224,4.17386970673893e-05
100,"AK","Unalaska Power Module","Aleutians West",53.8641,-166.5124,1,"DFO","OIL",1.1,31711,3078,38.66,1.3,2594.3,0,3078,0,0,0,0,0,0,0,0,0,3078,0,3078,0,0,0.319427148194271,0.000422352176738142,0.842852501624431,0.0125601039636127,0.00121913531582101,0.0818107281385008,4.09952382454038e-05
101,"AK","Unisea G 2","Aleutians West",53.8892,-166.5583,1,"DFO","OIL",17.2,288001.4,33882.5,351.07,10.03,19193.5,0,27578.1,0,0,0,6304.4,0,0,0,0,0,27578.1,6304.4,33882.5,0,0,0.22487588934905,0.000296023020733417,0.566472367741459,0.0103613960008854,0.00121898712992367,0.0666437732594355,3.48262195947659e-05
102,"AK","University of Alaska Fairbanks","Fairbanks",64.8542,-147.822,1,"SUB","COAL",22.6,340612.7,56986.1,123.52,55.6,35630.7,51127.3,5219,639.9,0,0,0,0,0,0,0,0,56986.1,0,56986.1,0,0.897188963624463,0.287843475976886,0.000975676524626181,0.625252473848886,0.00216754612089615,0.000362640617921763,0.10460766730072,0.000163235252238099
103,"AK","Upper Kalskag","Bethel",61.5378,-160.3072,1,"JF","OIL",1.1,8186,1387,9.98,0,654.2,0,1387,0,0,0,0,0,0,0,0,0,1387,0,1387,0,0,0.143939393939394,0,0.471665465032444,0.00719538572458544,0.00121915465428781,0.0799169313462008,0
104,"AK","Utility Plants Section","Fairbanks",64.6715,-147.0772,1,"SUB","COAL",22.5,616692.7,107245.3,234.19,150.27,66400.6,107245.3,0,0,0,0,0,0,0,0,0,0,107245.3,0,107245.3,0,1,0.544116184677829,0.00140118028482367,0.619146946299745,0.00218368543889569,0.00037975153589462,0.107672103139862,0.000243670794222147
105,"AK","Valdez","Valdez-Cordova",61.0811,-146.8517,1,"DFO","OIL",9.7,53102,3970,13.52,2.17,4344.4,0,3970,0,0,0,0,0,0,0,0,0,3970,0,3970,0,0,0.0467212728898931,0.000546599496221662,1.09430730478589,0.00340554156171285,0.000254604346352303,0.0818123611163421,4.08647508568415e-05
106,"AK","Valdez Cogen","Valdez-Cordova",61.0811,-146.8517,1,"JF","OIL",5.3,255365.5,30043,39.58,0,20406.9,0,30043,0,0,0,0,0,0,0,0,0,30043,0,30043,0,0,0.647087964159559,0,0.679256399161202,0.00131744499550644,0.000154993528883111,0.0799125175483767,0
107,"AK","Viking","Prince of Wales",55.4886,-133.1408,1,"DFO","OIL",1,790,37,0.96,0.03,64.6,0,37,0,0,0,0,0,0,0,0,0,37,0,37,0,0,0.00422374429223744,0.000810810810810811,1.74594594594595,0.0259459459459459,0.00121518987341772,0.0817721518987342,3.79746835443038e-05
108,"AK","Westward Seafoods","Aleutians West",53.8575,-166.5539,1,"DFO","OIL",6.6,161040,17486,196.31,6.53,13175,0,17486,0,0,0,0,0,0,0,0,0,17486,0,17486,0,0,0.302442230524422,0.000373441610431202,0.753459910785771,0.0112266956422281,0.00121901390958768,0.0818119721808246,4.05489319423746e-05
109,"AK","Wrangell","Wrangell-Petersburg",56.4522,-132.3683,1,"DFO","OIL",9.5,3299,309,4.02,0.14,269.9,0,309,0,0,0,0,0,0,0,0,0,309,0,309,0,0,0.00371304974765681,0.000453074433656958,0.873462783171521,0.0130097087378641,0.00121855107608366,0.081812670506214,4.24371021521673e-05
110,"AK","Yakutat","Skagway-Hoonah-Angoon",59.5453,-139.725,1,"DFO","OIL",3.7,50804.5,5977,61.93,2.02,4156.4,0,5977,0,0,0,0,0,0,0,0,0,5977,0,5977,0,0,0.184407009749475,0.000337962188388824,0.695399029613518,0.0103613853103564,0.00121898650710075,0.0818116505427669,3.97602574575087e-05
111,"AL","ABC Coke","Jefferson",33.5823,-86.787,1,"COG","OTHRFOSL",3.8,211073.9,17383,18.72,0.69,12348.8,0,0,512.3,0,0,0,0,0,0,16870.7,0,17383,0,17383,0,0,0.522200192261476,3.96939538629696e-05,0.710395213714549,0.00107691422654317,8.86893168695893e-05,0.0585046279999564,3.26899725641114e-06
112,"AL","Alabama Pine Pulp","Monroe",31.5825,-87.4889,1,"BLQ","BIOMASS",69,1720008.9,87132,51.7,455.36,4179.6,0,1221.3,289,0,0,85621.6,0,0,0,0,0,1510.4,85621.6,87132,0,0,0.144153265832837,0.00522609374282698,0.0479685993664785,0.000593352614424092,3.00579840022921e-05,0.00242998742622785,0.000264742816156358
113,"AL","Alabama River Pulp","Monroe",31.5825,-87.4889,1,"BLQ","BIOMASS",48,1600717.2,37047,117.65,340.24,5389.2,0,831.5,167.4,0,0,36048.1,0,0,0,0,0,998.9,36048.1,37047,0,0,0.0881064497716895,0.00918400950144411,0.145469268766702,0.00317569573784652,7.34983043850594e-05,0.00336674085841022,0.000212554722345709
114,"AL","AMEA Peaking","Talladega",33.1661,-86.2825,1,"NG","GAS",98.6,123998.7,12642,4.47,0.04,7324.3,0,0,12642,0,0,0,0,0,0,0,0,12642,0,12642,0,0,0.0146364166828753,3.1640563202025e-06,0.579362442651479,0.000353583293782629,3.60487650273753e-05,0.0590675547404933,3.22584027090607e-07
115,"AL","Bankhead Dam","Tuscaloosa",33.2146,-87.5882,0,"WAT","HYDRO",45,0,100981,0,0,0,0,0,0,0,100981,0,0,0,0,0,0,0,100981,0,100981,0,0.256166920345003,0,0,0,NA,NA,NA
116,"AL","Barry","Mobile",31.0069,-88.0103,1,"BIT","COAL",2841.5,132813710.5,15188887,8421.45,18567.24,11396934.2,7749280,0,7439607,0,0,0,0,0,0,0,0,15188887,0,15188887,0,0.510194064910747,0.610202783757052,0.00122242268311036,0.750346895068743,0.000554448130399548,6.34079867831115e-05,0.0858114283314146,0.000139799121115587
117,"AL","Bartletts Ferry","Lee",32.6631,-85.0911,0,"WAT","HYDRO",173,0,427335,0,0,0,0,0,0,0,427335,0,0,0,0,0,0,0,427335,0,427335,0,0.28197996674321,0,0,0,NA,NA,NA
118,"AL","Boise Cascade Pulp & Paper Mill","Clarke",31.4894,-87.8989,1,"BLQ","BIOMASS",18,641125.7,113123.3,22.14,117.58,14796.7,0,444.2,42857.5,0,0,69821.6,0,0,0,0,0,43301.8,69821.6,113123.3,0,0,0.717423262303399,0.00103939683513476,0.130801523647206,0.000195715648323555,3.45330096734541e-05,0.0230792495137849,0.000183396173324513
119,"AL","Browns Ferry","Limestone",34.7042,-87.1189,0,"NUC","NUCLEAR",3494,0,24771137,0,0,0,0,0,0,24771137,0,0,0,0,0,0,0,24771137,0,0,24771137,0,0.809317505809045,0,0,0,NA,NA,NA
120,"AL","Calhoun Energy Center","Calhoun",33.5883,-85.9731,1,"NG","GAS",748,3000714.5,274176,61.79,1.78,182448.2,0,14400.5,259775.5,0,0,0,0,0,0,0,0,274176,0,274176,0,0,0.0418430884184309,6.4921802054155e-06,0.665441905929038,0.000225366188141923,2.05917623952562e-05,0.0608015857556592,5.93192054758958e-07
121,"AL","Charles R Lowman","Washington",31.4858,-87.9106,1,"BIT","COAL",538,37439270.9,3176973,6142.35,6660.79,3862427.5,3166801.2,10171.8,0,0,0,0,0,0,0,0,0,3176973,0,3176973,0,0.996798273073142,0.674104369302847,0.00209658376070555,1.21575710589923,0.00193339697882229,0.00016406168849832,0.103165136690736,0.000177909180384172
122,"AL","Colbert","Colbert",34.7439,-87.8486,1,"BIT","COAL",1826,63762584.8,6038931,10053.68,23182.69,6596695,5993857.4,42278.5,2795.1,0,0,0,0,0,0,0,0,6038931,0,6038931,0,0.99253616244332,0.377533233806959,0.00383887313830875,1.09236137985349,0.00166481120582434,0.00015767365817328,0.103457145294398,0.000363578265729278
123,"AL","Crestwood Dothan","Houston",31.2624,-85.4027,1,"DFO","OIL",8.6,10922,1119,13.31,0.43,893.6,0,1119,0,0,0,0,0,0,0,0,0,1119,0,1119,0,0,0.0148534565148136,0.000384271671134942,0.798570151921358,0.0118945487042002,0.00121864127449185,0.0818165171214063,3.93700787401575e-05
124,"AL","Decatur Energy Center","Morgan",34.6292,-87.0214,1,"NG","GAS",711,26314076.9,3454959,110.95,7.89,1565403.3,0,0,3454959,0,0,0,0,0,0,0,0,3454959,0,3454959,0,0,0.554714082037647,2.28367398860594e-06,0.453088821025083,3.21132609677857e-05,4.21637439236943e-06,0.0594891968260532,2.99839512895852e-07
125,"AL","E B Harris Electric Generating Plant","Autauga",32.3814,-86.5736,1,"NG","GAS",1304,29254536.7,4189287,183.01,8.78,1740319.7,0,0,4189287,0,0,0,0,0,0,0,0,4189287,0,4189287,0,0,0.366740114715522,2.09582203367781e-06,0.415421454772614,4.36852380846669e-05,6.25578185963888e-06,0.059488882625169,3.00124390621438e-07
126,"AL","E C Gaston","Shelby",33.2442,-86.4567,1,"BIT","COAL",2034,95847003.5,9593170,11446,73141.52,9887736.5,9572401.6,20768.4,0,0,0,0,0,0,0,0,0,9593170,0,9593170,0,0.997835084753007,0.538402522415736,0.00762433272838905,1.03070585635405,0.00119314053644416,0.000119419487120429,0.103161665351385,0.000763107007304615
127,"AL","ExxonMobil Mobile Bay Onshore","Mobile",30.4278,-88.1769,1,"NG","GAS",12,489533.7,49928.8,22.52,0.78,28639.9,0,0,49928.8,0,0,0,0,0,0,0,0,49928.8,0,49928.8,0,0,0.474969558599696,1.56222460784157e-05,0.57361482751438,0.000451042284212719,4.60029615938596e-05,0.0585044502554165,1.59335302145695e-06
128,"AL","Fairfield Works","Jefferson",33.4885,-86.9212,1,"BFG","OTHRFOSL",82,2548568.7,299899.8,44.66,40.6,149102.7,0,0,83244.4,0,0,0,0,0,0,216655.3,0,299899.8,0,299899.8,0,0,0.417501670564651,0.000135378549768956,0.497175056468861,0.000148916404745852,1.75235613621089e-05,0.0585044852822684,1.59305103291899e-05
129,"AL","Gadsden","Etowah",34.0128,-85.9708,1,"BIT","COAL",138,2085653.6,229660,534.46,2624.51,212007.4,217945.2,0,10524.6,0,0,1190.2,0,0,0,0,0,228469.8,1190.2,229660,0,0.948990681877558,0.189977499834558,0.0114278063223896,0.923135940085343,0.00232717930854306,0.00025625540118455,0.101650341168831,0.00125836332553018
130,"AL","Gantt","Covington",31.4,-86.4753,0,"WAT","HYDRO",3,0,6509,0,0,0,0,0,0,0,6509,0,0,0,0,0,0,0,6509,0,6509,0,0.247678843226788,0,0,0,NA,NA,NA
131,"AL","General Electric Plastic","Lowndes",32.3102,-86.5242,1,"NG","GAS",97,3604508.9,529010,49.66,1.08,214426.9,0,0,529010,0,0,0,0,0,0,0,0,529010,0,529010,0,0,0.62256978769477,2.04154930908678e-06,0.405336194022797,9.38734617493053e-05,1.37771888980493e-05,0.0594885200588629,2.9962472835065e-07
132,"AL","Georgia Pacific Brewton Mill","Escambia",31.077,-87.1113,1,"BLQ","BIOMASS",40.9,1714106.2,277919.5,154.79,344.63,18823.3,0,9232.6,34220,0,0,234466.9,0,0,0,0,0,43452.6,234466.9,277919.5,0,0,0.775696095834589,0.00124003533397261,0.0677293244986408,0.000556959839090096,9.03036229610511e-05,0.0109814082698027,0.000201055220499173
133,"AL","Georgia Pacific Naheola Mill","Choctaw",32.2268,-88.0252,1,"BLQ","BIOMASS",78.3,1859155.3,292043,271.9,519.07,55357.5,58964.1,2340.5,38781.7,0,0,191956.6,0,0,0,0,0,100086.4,191956.6,292043,0,0.201902117153981,0.425775760014463,0.00177737524953517,0.18955256588927,0.000931027280229281,0.000146249213285195,0.0297756190674335,0.000279196686796418
134,"AL","Goat Rock","Lee",32.6088,-85.0814,0,"WAT","HYDRO",38.6,0,136398,0,0,0,0,0,0,0,136398,0,0,0,0,0,0,0,136398,0,136398,0,0.403382071119313,0,0,0,NA,NA,NA
135,"AL","Gorgas","Walker",33.6446,-87.2003,1,"BIT","COAL",1416.7,71213704.2,6875509,8253.34,7601.53,7346774.9,6864659.3,10849.7,0,0,0,0,0,0,0,0,0,6875509,0,6875509,0,0.998421978649144,0.554016698398394,0.00110559523665811,1.06854269262101,0.00120039694515708,0.000115895389696637,0.103165184040518,0.000106742516561861
136,"AL","Greene County","Greene",32.6017,-87.7811,1,"BIT","COAL",1288.4,28342566.6,2783910,4967.43,33627.55,2897323.3,2713806.8,2801.7,67301.6,0,0,0,0,0,0,0,0,2783910,0,2783910,0,0.974818438814473,0.246660932323408,0.01207925184363,1.04073885290832,0.00178433570050756,0.000175263943809521,0.102225156277837,0.00118646805967107
137,"AL","Guntersville","Marshall",34.4211,-86.3931,0,"WAT","HYDRO",115.2,0,645316,0,0,0,0,0,0,0,645316,0,0,0,0,0,0,0,645316,0,645316,0,0.639463628868595,0,0,0,NA,NA,NA
138,"AL","H Allen Franklin Combined Cycle","Lee",32.6094,-85.0961,1,"NG","GAS",1995.7,54421695.2,7713188,288.34,16.33,3237495.7,0,0,7713188,0,0,0,0,0,0,0,0,7713188,0,7713188,0,0,0.441199034545277,2.11715311489879e-06,0.419735095268001,3.73827268309809e-05,5.29825465635256e-06,0.0594890638393785,3.00064155296655e-07
139,"AL","H Neely Henry Dam","Calhoun",33.7845,-86.0524,0,"WAT","HYDRO",72.9,0,176953,0,0,0,0,0,0,0,176953,0,0,0,0,0,0,0,176953,0,176953,0,0.27709347263719,0,0,0,NA,NA,NA
140,"AL","Harris Dam","Randolph",33.2579,-85.6162,0,"WAT","HYDRO",135,0,159540,0,0,0,0,0,0,0,159540,0,0,0,0,0,0,0,159540,0,159540,0,0.134906139015728,0,0,0,NA,NA,NA
141,"AL","Hillabee Energy Center","Tallapoosa",33,-85.9031,1,"NG","GAS",822.8,17162720.8,2181265,90.96,5.15,1020995.9,0,0,2181265,0,0,0,0,0,0,0,0,2181265,0,2181265,0,0,0.302628650803693,2.3610152824164e-06,0.468075130715433,4.1700572832737e-05,5.29985898273192e-06,0.0594891632799853,3.00068972747025e-07
142,"AL","Hog Bayou Energy Center","Mobile",30.7478,-88.0575,1,"NG","GAS",280,4293437.4,556143,29.12,1.29,255411.2,0,0,556143,0,0,0,0,0,0,0,0,556143,0,556143,0,0,0.22673801369863,2.31954731067369e-06,0.459254544244915,5.23606338657504e-05,6.78244429510024e-06,0.0594887443799693,3.00458555655196e-07
143,"AL","Holt Dam","Tuscaloosa",33.2553,-87.4495,0,"WAT","HYDRO",40,0,128109,0,0,0,0,0,0,0,128109,0,0,0,0,0,0,0,128109,0,128109,0,0.365607876712329,0,0,0,NA,NA,NA
144,"AL","International Paper Courtland Mill","Lawrence",34.735,-87.3108,1,"BLQ","BIOMASS",127.1,5534722.9,377952,275.14,1296.85,32542,0,228.3,36439.8,0,0,338520.3,0,0,0,2763.7,0,39431.7,338520.3,377952,0,0,0.339458737053124,0.00343125582084497,0.0861008805350944,0.000727976039285412,4.97116124819907e-05,0.00587960781198278,0.000234311640064221
145,"AL","International Paper Prattville Mill","Autauga",32.4187,-86.4718,1,"BLQ","BIOMASS",89.8,3174564.3,559670,352.72,400.35,51346.5,50881.8,6830.4,30164.5,0,0,471793.3,0,0,0,0,0,87876.7,471793.3,559670,0,0.0909139314238748,0.711461797398582,0.000715332249361231,0.0917442421426912,0.000630228527525149,0.00011110816057498,0.0161743455629486,0.000126111794301977
146,"AL","International Paper Riverdale Mill","Dallas",32.425,-86.8694,1,"BLQ","BIOMASS",104.2,7480724.5,445778,644.15,1135.4,121809.9,0,2649.6,201341.8,0,0,241786.6,0,0,0,0,0,203991.4,241786.6,445778,0,0,0.488367557997879,0.00254700770338599,0.273252381230119,0.00144500177218257,8.61079698898148e-05,0.0162831688294362,0.000151776743014664
147,"AL","James H Miller Jr","Jefferson",33.6319,-87.0597,1,"SUB","COAL",2822,216457149.9,20621635,8518.92,25815.17,22824352.1,20531889.1,0,89745.9,0,0,0,0,0,0,0,0,20621635,0,20621635,0,0.995647973596662,0.834184238970386,0.00125184884709675,1.10681583201332,0.000413105944315279,3.93561497226385e-05,0.105445129026898,0.00011926226512696
148,"AL","Jones Bluff","Autauga",32.3248,-86.7872,0,"WAT","HYDRO",82,0,272954,0,0,0,0,0,0,0,272954,0,0,0,0,0,0,0,272954,0,272954,0,0.379989419757211,0,0,0,NA,NA,NA
149,"AL","Jordan Dam","Elmore",32.6189,-86.2548,0,"WAT","HYDRO",100,0,327599,0,0,0,0,0,0,0,327599,0,0,0,0,0,0,0,327599,0,327599,0,0.373971461187215,0,0,0,NA,NA,NA
150,"AL","Joseph M Farley","Houston",31.2231,-85.1116,0,"NUC","NUCLEAR",1776.4,0,13169684,0,0,0,0,0,0,13169684,0,0,0,0,0,0,0,13169684,0,0,13169684,0,0.846311970544295,0,0,0,NA,NA,NA
151,"AL","Lay Dam","Chilton",32.9633,-86.5187,0,"WAT","HYDRO",177,0,482545,0,0,0,0,0,0,0,482545,0,0,0,0,0,0,0,482545,0,482545,0,0.311214947243505,0,0,0,NA,NA,NA
152,"AL","Lee County","Lee",32.5412,-85.0384,1,"NG","GAS",103,109944.1,3919,13.23,0.03,6432.2,0,0,3919,0,0,0,0,0,0,0,0,3919,0,3919,0,0,0.0043434410604247,7.6550140341924e-06,1.64128604235774,0.00337586118907885,0.000120333878762025,0.0585042762640287,2.72865938235885e-07
153,"AL","Lewis Smith Dam","Walker",33.9406,-87.1077,0,"WAT","HYDRO",157.4,0,214662,0,0,0,0,0,0,0,214662,0,0,0,0,0,0,0,214662,0,214662,0,0.155684844476162,0,0,0,NA,NA,NA
154,"AL","Logan Martin Dam","Talladega",33.4258,-86.338,0,"WAT","HYDRO",128.1,0,306988,0,0,0,0,0,0,0,306988,0,0,0,0,0,0,0,306988,0,306988,0,0.273569806693544,0,0,0,NA,NA,NA
155,"AL","Martin Dam","Elmore",32.6797,-85.9125,0,"WAT","HYDRO",210.6,0,397804,0,0,0,0,0,0,0,397804,0,0,0,0,0,0,0,397804,0,397804,0,0.215628753680504,0,0,0,NA,NA,NA
156,"AL","McIntosh","Washington",31.2546,-88.0299,1,"NG","GAS",784,1269805.1,134764,44.14,0.4,75603.8,0,291.6,134472.4,0,0,0,0,0,0,0,0,134764,0,134764,0,0,0.0196224722765819,2.96815173191654e-06,0.561008874773678,0.00032753554361699,3.47612401304736e-05,0.0595396884135998,3.15008972636824e-07
157,"AL","McWilliams","Covington",31.4001,-86.4767,1,"NG","GAS",654,21408496.4,2834294,168.79,6.42,1273566.7,0,217.8,2834076.2,0,0,0,0,0,0,0,0,2834294,0,2834294,0,0,0.494724072444947,2.26511434593588e-06,0.449341776117792,5.95527492913579e-05,7.88425290811175e-06,0.0594888438778914,2.99880938859396e-07
158,"AL","Mead Coated Board","Russell",32.175,-85.0311,1,"BLQ","BIOMASS",112.5,4153663.7,728667,409.45,644.7,34019.7,0,0,151231.4,0,0,577435.6,0,0,0,0,0,151231.4,577435.6,728667,0,0,0.739388127853881,0.000884766292421641,0.0466875815701823,0.000561916485857051,9.85756261394007e-05,0.00819028752857387,0.000155212373115329
159,"AL","Millers Ferry","Wilcox",32.1009,-87.3969,0,"WAT","HYDRO",101.1,0,302175,0,0,0,0,0,0,0,302175,0,0,0,0,0,0,0,302175,0,302175,0,0.341195479858542,0,0,0,NA,NA,NA
160,"AL","Mitchell Dam","Coosa",32.8049,-86.4456,0,"WAT","HYDRO",170,0,411104,0,0,0,0,0,0,0,411104,0,0,0,0,0,0,0,411104,0,411104,0,0.276056943325275,0,0,0,NA,NA,NA
161,"AL","Mobile Energy Services LLC","Mobile",30.7322,-88.0769,1,"WDS","BIOMASS",78.8,2929666,390933,624.56,400.37,99752.6,112835.1,0,18142.3,0,0,259955.6,0,0,0,0,0,130977.4,259955.6,390933,0,0.288630276799349,0.566333182671581,0.00102413968634011,0.255165463135627,0.00159761391338158,0.0002131847111582,0.0340491373419359,0.000136660629573474
162,"AL","Morgan Energy Center","Morgan",34.6397,-87.0639,1,"NG","GAS",900,28637927.8,3852216,126.16,8.59,1703622.4,0,0,3852216,0,0,0,0,0,0,0,0,3852216,0,3852216,0,0,0.488611872146119,2.22988534391633e-06,0.442244775474688,3.27499807902776e-05,4.40534667455932e-06,0.0594883265261951,2.99951870120994e-07
163,"AL","Point A","Covington",31.3614,-86.5183,0,"WAT","HYDRO",5.2,0,15022,0,0,0,0,0,0,0,15022,0,0,0,0,0,0,0,15022,0,15022,0,0.329776958201616,0,0,0,NA,NA,NA
164,"AL","Rock-Tenn Mill","Marengo",32.4541,-87.9759,1,"BLQ","BIOMASS",31.5,1170647.3,203814,95.32,8.34,31881.1,14090.9,47669.5,811.6,0,0,141242,0,0,0,0,0,62572,141242,203814,0,0.069136075048819,0.738617090671885,4.09196620448056e-05,0.156422522496001,0.00046768131727948,8.14250372422163e-05,0.027233736412325,7.12426364456656e-06
165,"AL","Shell Offshore Yellowhammer","Mobile",30.4067,-88.1333,1,"NG","GAS",3.4,131775.5,15503,10.15,0.21,7709.5,0,0,15503,0,0,0,0,0,0,0,0,15503,0,15503,0,0,0.520514370131614,1.35457653357415e-05,0.497290846932852,0.000654711991227504,7.70249401444123e-05,0.058504805521512,1.5936194512637e-06
166,"AL","Sloss Industries Corp","Jefferson",33.5611,-86.8106,1,"COG","OTHRFOSL",25,242035.1,43207.7,22.51,0.85,14160.1,0,0,8.4,0,0,0,0,0,0,43199.3,0,43207.7,0,43207.7,0,0,0.197295433789954,1.96724194993022e-05,0.327721679237728,0.000520971956387403,9.3003039641771e-05,0.0585043243727873,3.51188732543338e-06
167,"AL","Tenaska Central Alabama Generating Stn","Autauga",32.6503,-86.7386,1,"NG","GAS",927.1,12698718.3,1638043,63.31,3.81,755439.1,0,0,1638043,0,0,0,0,0,0,0,0,1638043,0,1638043,0,0,0.201694757896303,2.32594626636785e-06,0.461183924964119,3.86497790351047e-05,4.98554251731059e-06,0.0594893974457249,3.00030279433791e-07
168,"AL","Tenaska Lindsay Hill Generating Station","Autauga",32.6514,-86.7386,1,"NG","GAS",939.4,7088246.9,910925,42.69,2.13,421675.6,0,0,910925,0,0,0,0,0,0,0,0,910925,0,910925,0,0,0.110694988445943,2.33828251502594e-06,0.462909240607075,4.68644509701677e-05,6.02264574051448e-06,0.0594894063297936,3.00497433293414e-07
169,"AL","Theodore Cogen Facility","Mobile",30.5248,-88.1289,1,"NG","GAS",317.4,14199377.5,1547078,53.84,4.26,844705.2,0,0,1547078,0,0,0,0,0,0,0,0,1547078,0,1547078,0,0,0.556418013943197,2.75357803549659e-06,0.54600039558445,3.48010895378255e-05,3.7917155171063e-06,0.0594888895657574,3.00013151985008e-07
170,"AL","Thurlow Dam","Elmore",32.5349,-85.8896,0,"WAT","HYDRO",91,0,223951,0,0,0,0,0,0,0,223951,0,0,0,0,0,0,0,223951,0,223951,0,0.280936073059361,0,0,0,NA,NA,NA
171,"AL","U S Alliance Coosa Pines","Talladega",33.3278,-86.3583,1,"BLQ","BIOMASS",30.4,1356518.6,154357,157.08,793.86,58336.2,63528.8,0,0,0,0,90828.2,0,0,0,0,0,63528.8,90828.2,154357,0,0.411570579889477,0.579627042778178,0.00514301262657346,0.377930382166018,0.00101764092331414,0.00011579642181095,0.0430043495164755,0.000585218661948314
172,"AL","Walter Bouldin Dam","Elmore",32.6184,-86.2567,0,"WAT","HYDRO",225,0,434527,0,0,0,0,0,0,0,434527,0,0,0,0,0,0,0,434527,0,434527,0,0.220460172501268,0,0,0,NA,NA,NA
173,"AL","Washington County Cogeneration Facility","Washington",31.2504,-88.0156,1,"NG","GAS",122.5,7863990.9,852460,200.27,2.12,467829,0,0,852460,0,0,0,0,0,0,0,0,852460,0,852460,0,0,0.794390084801044,2.48692020739976e-06,0.548798770616803,0.00023493184430941,2.5466713090932e-05,0.0594900230619545,2.69583221414969e-07
174,"AL","Weiss Dam","Cherokee",34.1722,-85.7537,0,"WAT","HYDRO",87.6,0,193703,0,0,0,0,0,0,0,193703,0,0,0,0,0,0,0,193703,0,193703,0,0.252422541231417,0,0,0,NA,NA,NA
175,"AL","Weyerhaeuser Pine Hill Operations","Wilcox",31.9698,-87.4806,1,"BIT","GAS",72.9,2307044,514424,449.69,816.86,188268.3,248033.9,14450.2,251939.9,0,0,0,0,0,0,0,0,514424,0,514424,0,0.482158491827753,0.805544594145981,0.00158791191701787,0.365978842355722,0.000874162169727695,0.000194920426311765,0.0816058558050908,0.000354072137332448
176,"AL","Wheeler Dam","Lawrence",34.8069,-87.3819,0,"WAT","HYDRO",404,0,1096591,0,0,0,0,0,0,0,1096591,0,0,0,0,0,0,0,1096591,0,1096591,0,0.309855497536055,0,0,0,NA,NA,NA
177,"AL","Widows Creek","Jackson",34.8825,-85.7547,1,"BIT","COAL",1968.6,62171953.7,5702492,2995.72,10981.96,6413976.6,5691435.5,11056.5,0,0,0,0,0,0,0,0,0,5702492,0,5702492,0,0.998061110826635,0.330676321443002,0.001925817695141,1.12476731225576,0.000525335239400599,4.81844275709161e-05,0.103165112535301,0.000176638489647463
178,"AL","Wilson Dam","Lauderdale",34.7934,-87.6244,0,"WAT","HYDRO",666.7,0,2094059,0,0,0,0,0,0,0,2094059,0,0,0,0,0,0,0,2094059,0,2094059,0,0.358553818884398,0,0,0,NA,NA,NA
179,"AL","Yates Dam","Elmore",32.5743,-85.8901,0,"WAT","HYDRO",50.5,0,149429,0,0,0,0,0,0,0,149429,0,0,0,0,0,0,0,149429,0,149429,0,0.337784257877843,0,0,0,NA,NA,NA
180,"AR","Arkansas Nuclear One","Pope",35.311,-93.2351,0,"NUC","NUCLEAR",1845,0,15022678,0,0,0,0,0,0,15022678,0,0,0,0,0,0,0,15022678,0,0,15022678,0,0.929494623256735,0,0,0,NA,NA,NA
181,"AR","Ashdown","Little River",33.6417,-94.1083,1,"BLQ","BIOMASS",156.5,4894453.9,850763,584.08,1305.26,104186.7,111443,1219.9,80138.5,0,0,639746.2,0,0,0,18215.3,0,211016.8,639746.2,850763,0,0.130991827336168,0.620569098574701,0.00153422280940756,0.12246265998874,0.000686536673550683,0.000119335070251658,0.0212866853235659,0.000266681437126213
182,"AR","Beaver","Carroll",36.4226,-93.8462,0,"WAT","HYDRO",112,0,189500,0,0,0,0,0,0,0,189500,0,0,0,0,0,0,0,189500,0,189500,0,0.193146607958252,0,0,0,NA,NA,NA
183,"AR","Blakely Mountain","Garland",34.5711,-93.1947,0,"WAT","HYDRO",75,0,74975,0,0,0,0,0,0,0,74975,0,0,0,0,0,0,0,74975,0,74975,0,0.114117199391172,0,0,0,NA,NA,NA
184,"AR","Bull Shoals","Marion",36.3635,-92.5763,0,"WAT","HYDRO",340,0,940567,0,0,0,0,0,0,0,940567,0,0,0,0,0,0,0,940567,0,940567,0,0.315796065001343,0,0,0,NA,NA,NA
185,"AR","Carl Bailey","Woodruff",35.2597,-91.3631,1,"NG","GAS",120,432444.7,46243,36.66,46.43,27019.8,0,5176.3,41066.7,0,0,0,0,0,0,0,0,46243,0,46243,0,0,0.0439906773211568,0.00100404385528621,0.584300326535908,0.000792768635252903,8.47738450719826e-05,0.062481514977522,0.00010736632915145
186,"AR","Carpenter","Garland",34.4425,-93.0262,0,"WAT","HYDRO",56,0,111812,0,0,0,0,0,0,0,111812,0,0,0,0,0,0,0,111812,0,111812,0,0.22792726679713,0,0,0,NA,NA,NA
187,"AR","Cecil Lynch","Pulaski",34.7535,-92.1987,1,"NG","GAS",231,671357.7,45548,78.93,0.22,39945,0,26,45522,0,0,0,0,0,0,0,0,45548,0,45548,0,0,0.022508845796517,4.83006937736015e-06,0.87698691490296,0.00173289716343198,0.000117567728797927,0.0594988334832534,3.27694163632889e-07
188,"AR","Clearwater Paper APP CB","Desha",33.7061,-91.2371,1,"BLQ","BIOMASS",20,925840.1,163373,63.19,193.66,17255.8,0,159.7,49882.1,0,0,113331.2,0,0,0,0,0,50041.8,113331.2,163373,0,0,0.932494292237443,0.00118538559003018,0.105622104019636,0.000386783617856072,6.82515263704823e-05,0.0186379915927167,0.000209172188588505
189,"AR","Columbia Flooring Melbourne","Izard",36.0614,-91.9197,1,"WDS","BIOMASS",2,323200,3351.4,25.25,2.93,702.9,0,0,0,0,0,3351.4,0,0,0,0,0,0,3351.4,3351.4,0,0,0.1912899543379,0.000874261502655607,0.209733245807722,0.00753416482663961,7.8125e-05,0.00217481435643564,9.06559405940594e-06
190,"AR","Dam 2","Desha",33.9864,-91.3159,0,"WAT","HYDRO",102.6,0,431239,0,0,0,0,0,0,0,431239,0,0,0,0,0,0,0,431239,0,431239,0,0.479806981939883,0,0,0,NA,NA,NA
191,"AR","Dardanelle","Pope",35.2503,-93.1686,0,"WAT","HYDRO",160.8,0,706781,0,0,0,0,0,0,0,706781,0,0,0,0,0,0,0,706781,0,706781,0,0.501758473613667,0,0,0,NA,NA,NA
192,"AR","Degray","Clark",34.2122,-93.1099,0,"WAT","HYDRO",68,0,64707,0,0,0,0,0,0,0,64707,0,0,0,0,0,0,0,64707,0,64707,0,0.108627115229654,0,0,0,NA,NA,NA
193,"AR","Dell Power Station","Mississippi",35.8619,-90.0253,1,"NG","GAS",679,5580760.3,674427,45.3,1.67,331993.3,0,0,674427,0,0,0,0,0,0,0,0,674427,0,674427,0,0,0.113386426453084,2.47617607242889e-06,0.492259799800423,6.71681293898376e-05,8.11717356862648e-06,0.0594889015390967,2.9924238100676e-07
194,"AR","Elkins Generating Center","Washington",35.9714,-94.0014,1,"NG","GAS",44,2789,206,0.38,0,163.2,0,0,206,0,0,0,0,0,0,0,0,206,0,206,0,0,0.000534454130344541,0,0.792233009708738,0.00184466019417476,0.000136249551810685,0.0585155969881678,0
195,"AR","Ellis","Crawford",35.35,-94.2917,0,"WAT","HYDRO",32.4,0,143431,0,0,0,0,0,0,0,143431,0,0,0,0,0,0,0,143431,0,143431,0,0.505351908224815,0,0,0,NA,NA,NA
196,"AR","Flint Creek","Benton",36.2561,-94.5241,1,"SUB","COAL",558,36889221.9,3593433,4879.98,8506.18,3889788.9,3588709.3,4723.7,0,0,0,0,0,0,0,0,0,3593433,0,3593433,0,0.998685463176856,0.735142018952227,0.00236714584632578,1.08247152514044,0.00135802726807485,0.000132287420245099,0.105445132742147,0.000230587135262943
197,"AR","Fulton","Hempstead",33.6094,-93.7924,1,"NG","GAS",154.8,887067.2,102681,25.36,0.27,52770.8,0,0,102681,0,0,0,0,0,0,0,0,102681,0,102681,0,0,0.0757207709461612,2.62950302392848e-06,0.513929548796759,0.000246978506247504,2.85885894552295e-05,0.0594890668936919,3.04373783632176e-07
198,"AR","Georgia Pacific Crossett","Ashley",33.1421,-91.975,1,"BLQ","BIOMASS",92,2826237.6,490418.5,281.5,486.8,29527.1,0,1775.6,64243,0,0,414582.5,0,0,0,9817.3,0,75836,414582.5,490418.5,0,0,0.608520076434386,0.000992621607871644,0.060207965237853,0.000573999553442621,9.96023830409729e-05,0.0104474938695883,0.000172243126338706
199,"AR","Greers Ferry Lake","Cleburne",35.5207,-91.9953,0,"WAT","HYDRO",96,0,218386,0,0,0,0,0,0,0,218386,0,0,0,0,0,0,0,218386,0,218386,0,0.25968654870624,0,0,0,NA,NA,NA
200,"AR","Harry D Mattison Gas Plant","Washington",36.1855,-94.2841,1,"NG","GAS",349,1485069.3,95598,31.01,0.46,87695,0,0,95598,0,0,0,0,0,0,0,0,95598,0,95598,0,0,0.0312693802253012,4.81181614678131e-06,0.91733090650432,0.000324379171112366,2.08811804270683e-05,0.0590511163351097,3.09749854771087e-07
201,"AR","Harry L. Oswald","Pulaski",34.5923,-92.2166,1,"NG","GAS",599.5,3670730.6,458047,125.13,1.1,218370.7,0,0,458047,0,0,0,0,0,0,0,0,458047,0,458047,0,0,0.0872201339777059,2.40150028272208e-06,0.476742997989289,0.000273181573070012,3.40885817117715e-05,0.0594897103045372,2.99667864484525e-07
202,"AR","Harvey Couch","Lafayette",33.3592,-93.4649,1,"NG","GAS",182.7,1246776.5,68743,94.4,0.71,73938.4,0,0,68743,0,0,0,0,0,0,0,0,68743,0,68743,0,0,0.0429522409919198,1.03283243384781e-05,1.07557714967342,0.00137323072894695,7.57152544983002e-05,0.0593036522584441,5.69468545485097e-07
203,"AR","Hot Spring Power Project","Hot Spring",34.4304,-92.8333,1,"NG","GAS",746,13434328.8,1826383,90.36,4.03,799190.9,0,0,1826383,0,0,0,0,0,0,0,0,1826383,0,1826383,0,0,0.27947883384137,2.20654703860034e-06,0.437581219273285,4.94748363295103e-05,6.72605243962765e-06,0.0594887107422888,2.999777703818e-07
204,"AR","Independence","Independence",35.6733,-91.4083,1,"SUB","COAL",1700,118838142,11895909,14618.66,28674.64,12529611.1,11886080.7,9828.3,0,0,0,0,0,0,0,0,0,11895909,0,11895909,0,0.999173808407579,0.798812046736503,0.00241046228581607,1.05327059075519,0.00122888129019817,0.000123013198910498,0.105434256116189,0.000241291554356345
205,"AR","Jonesboro City Water & Light Plant","Craighead",35.8481,-90.7257,1,"NG","GAS",224.3,804189.9,91979,51.06,0.25,47485.8,0,11.6,91967.4,0,0,0,0,0,0,0,0,91979,0,91979,0,0,0.0468117960086886,2.71801172006654e-06,0.516267843746942,0.00055512671370639,6.34924661451232e-05,0.0590479935149646,3.10871847557399e-07
206,"AR","KGen Hot Spring Generating Facility","Hot Spring",34.2963,-92.8683,1,"NG","GAS",714.8,5903578.6,813835,42.84,1.77,351201.7,0,0,813835,0,0,0,0,0,0,0,0,813835,0,813835,0,0,0.129971374947937,2.17488803012896e-06,0.431539194062679,5.26396628309178e-05,7.25661550436544e-06,0.0594896288837418,2.99818147589328e-07
207,"AR","Lake Catherine","Hot Spring",34.4341,-92.9046,1,"NG","GAS",752,1804235.5,134392,152.37,0.54,107325.2,0,0,134392,0,0,0,0,0,0,0,0,134392,0,134392,0,0,0.0204010006800738,4.01809631525686e-06,0.798598130841122,0.00113377284362164,8.44512814430267e-05,0.0594851392736702,2.99295740495074e-07
208,"AR","Mabelvale","Pulaski",34.6342,-92.4105,1,"NG","GAS",78,243087,15236,33.55,0.41,14221.7,0,0,15236,0,0,0,0,0,0,0,0,15236,0,15236,0,0,0.0222983257229833,2.69099501181412e-05,0.933427408768706,0.00220202152796009,0.000138016430331527,0.0585045683232752,1.68663893996799e-06
209,"AR","McClellan","Ouachita",33.5648,-92.7917,1,"NG","GAS",136,2444251.3,212630,316.42,55.21,146603.7,0,5490.9,207139.1,0,0,0,0,0,0,0,0,212630,0,212630,0,0,0.178476698898738,0.000259652918214739,0.689477966420543,0.00148812491181865,0.000129454774146995,0.0599789800664113,2.25876938267354e-05
210,"AR","Murray","Pulaski",34.7956,-92.3569,0,"WAT","HYDRO",45.4,0,137381,0,0,0,0,0,0,0,137381,0,0,0,0,0,0,0,137381,0,137381,0,0.345435298614045,0,0,0,NA,NA,NA
211,"AR","Narrows","Pike",34.1483,-93.7149,0,"WAT","HYDRO",25.5,0,29783,0,0,0,0,0,0,0,29783,0,0,0,0,0,0,0,29783,0,29783,0,0.133328856656818,0,0,0,NA,NA,NA
212,"AR","Norfork","Baxter",36.2491,-92.2401,0,"WAT","HYDRO",80.4,0,234712,0,0,0,0,0,0,0,234712,0,0,0,0,0,0,0,234712,0,234712,0,0.333253822213135,0,0,0,NA,NA,NA
213,"AR","Ozark","Franklin",35.4693,-93.8175,0,"WAT","HYDRO",100,0,146965,0,0,0,0,0,0,0,146965,0,0,0,0,0,0,0,146965,0,146965,0,0.167768264840183,0,0,0,NA,NA,NA
214,"AR","Paragould Reciprocating","Greene",36.0242,-90.5094,1,"NG","GAS",19.2,22500,2250,15.23,0.04,1316.4,0,0,2250,0,0,0,0,0,0,0,0,2250,0,2250,0,0,0.0133775684931507,1.77777777777778e-05,0.585066666666667,0.00676888888888889,0.000676888888888889,0.0585066666666667,1.77777777777778e-06
215,"AR","Paragould Turbine","Greene",36.0243,-90.5094,1,"NG","GAS",13.9,8190,585,1.13,0.01,479.2,0,0,585,0,0,0,0,0,0,0,0,585,0,585,0,0,0.00480437567754016,1.70940170940171e-05,0.819145299145299,0.00193162393162393,0.000137973137973138,0.0585103785103785,1.22100122100122e-06
216,"AR","Pine Bluff Energy Center","Jefferson",34.2181,-91.9025,1,"NG","GAS",236,6631085.6,1206317,108.5,1.99,394473.6,0,0,1206317,0,0,0,0,0,0,0,0,1206317,0,1206317,0,0,0.58350601733612,1.64964930445314e-06,0.327006582846797,8.99431907201838e-05,1.63623283644536e-05,0.0594885398553745,3.00101690739749e-07
217,"AR","Pine Bluff Mill","Jefferson",34.2204,-91.9063,1,"BLQ","BIOMASS",85,7887775.7,349366.7,658.77,1765.09,48436.1,0,4.5,30083.8,0,0,318890.4,0,0,0,388.1,0,30476.3,318890.4,349366.7,0,0,0.469200510341123,0.00505225598203836,0.138639715805771,0.00188561188001032,8.35178414112359e-05,0.00614065382209081,0.000223775379413996
218,"AR","Plum Point Energy Station","Mississippi",35.6519,-89.9399,1,"SUB","COAL",720,20451326.3,1624152,764.26,1307.7,2156109.2,1619272.8,4879.2,0,0,0,0,0,0,0,0,0,1624152,0,1624152,0,0.996995847679281,0.257507610350076,0.00080515863047301,1.32752919677469,0.000470559405769903,3.73697034993765e-05,0.105426375207754,6.3942063258753e-05
219,"AR","Remmel","Hot Spring",34.4272,-92.8941,0,"WAT","HYDRO",9,0,27003,0,0,0,0,0,0,0,27003,0,0,0,0,0,0,0,27003,0,27003,0,0.342503805175038,0,0,0,NA,NA,NA
220,"AR","STEC-S LLC","Arkansas",34.5136,-91.5331,1,"DG","BIOMASS",18,82280.2,14012,5.68,0,0,0,0,0,0,0,14012,0,0,0,0,0,0,14012,14012,0,0,0.0888635210553019,0,0,0.000405366828432772,6.9032403907623e-05,0,0
221,"AR","Thomas Fitzhugh","Franklin",35.4617,-93.8053,1,"NG","GAS",185,804407.8,82487,56.67,0.24,47852.5,0,0,82487,0,0,0,0,0,0,0,0,82487,0,82487,0,0,0.0508990497346662,2.90954938353922e-06,0.580121716149211,0.000687017348188199,7.04493417393516e-05,0.0594878617537025,2.9835613230006e-07
222,"AR","Two Pine Landfill Gas Recovery","Pulaski",34.8364,-92.1656,1,"LFG","BIOMASS",4.8,295783,34798,0,0,0,0,0,0,0,0,34798,0,0,0,0,0,0,34798,34798,0,0,0.82757800608828,0,0,0,0,0,0
223,"AR","Union Power Partners LP","Union",33.2961,-92.5933,1,"NG","GAS",2428,49498545.2,6376869,398.76,14.85,2944626.9,0,0,6376869,0,0,0,0,0,0,0,0,6376869,0,6376869,0,0,0.299815931709959,2.32872903614611e-06,0.461766879639522,6.25322552494022e-05,8.05599434061751e-06,0.0594891605016303,3.00008817228834e-07
224,"AR","Warren Lumber Mill","Bradley",33.6206,-92.0789,1,"WDS","BIOMASS",15,442864.9,77082,31.16,5.95,963.1,0,0,0,0,0,77082,0,0,0,0,0,0,77082,77082,0,0,0.58662100456621,7.71905243766379e-05,0.012494486391116,0.000404244830180846,7.0360057886728e-05,0.00217470384309075,1.34352485374208e-05
225,"AR","Waste Management Eco Vista LFGTE","Washington",36.1758,-94.2056,1,"LFG","BIOMASS",4,39006,3525,0,0,0,0,0,0,0,0,3525,0,0,0,0,0,0,3525,3525,0,0,0.100599315068493,0,0,0,0,0,0
226,"AR","Whillock","Conway",35.1258,-92.7897,0,"WAT","HYDRO",32.4,0,148926,0,0,0,0,0,0,0,148926,0,0,0,0,0,0,0,148926,0,148926,0,0.524712497886014,0,0,0,NA,NA,NA
227,"AR","White Bluff","Jefferson",34.4236,-92.1392,1,"SUB","COAL",1700,112760640.9,10958990,15806.46,28464.34,11887575.8,10946939.4,12050.6,0,0,0,0,0,0,0,0,0,10958990,0,10958990,0,0.998900391368183,0.735897797475154,0.00259735066826414,1.08473279015676,0.00144232817075296,0.000140177103232481,0.105423095373698,0.000252431520190127
228,"AR","White River Lock and Dam 1","Independence",35.7569,-91.6356,0,"WAT","HYDRO",4.3,0,20091,0,0,0,0,0,0,0,20091,0,0,0,0,0,0,0,20091,0,20091,0,0.533370500159286,0,0,0,NA,NA,NA
229,"AR","White River Lock and Dam 2","Independence",35.7436,-91.7644,0,"WAT","HYDRO",3.5,0,14475,0,0,0,0,0,0,0,14475,0,0,0,0,0,0,0,14475,0,14475,0,0.472113502935421,0,0,0,NA,NA,NA
230,"AR","White River Lock and Dam 3","Stone",35.8428,-91.8519,0,"WAT","HYDRO",4.3,0,22961,0,0,0,0,0,0,0,22961,0,0,0,0,0,0,0,22961,0,22961,0,0.609562493363067,0,0,0,NA,NA,NA
231,"AZ","Agua Fria","Maricopa",33.5542,-112.2161,0.5,"NG","GAS",613.5,364934.4,18747,62.37,0.15,21681,0,3.3,18305.7,0,0,0,0,438,0,0,0,18309,438,18309,438,0,0.0034882942023646,8.00128020483277e-06,1.15650504080653,0.00332693230916947,0.000170907428842006,0.0594106776450781,4.11032777397801e-07
232,"AZ","Apache Station","Cochise",32.0619,-109.8931,1,"SUB","COAL",660.7,24991129.1,2187396,5019.03,4588.5,2528504.3,2079801.9,0,107594.1,0,0,0,0,0,0,0,0,2187396,0,2187396,0,0.95081178716611,0.377936642539772,0.00209769973063862,1.15594263681565,0.00229452280245552,0.000200832462587695,0.101176072913008,0.000183605149716905
233,"AZ","Arlington Valley Energy Facility","Maricopa",33.3417,-112.8897,1,"NG","GAS",713,8778083.3,1215899,35.28,2.63,518690.8,0,0,1215899,0,0,0,0,0,0,0,0,1215899,0,1215899,0,0,0.194672167893075,2.16300860515553e-06,0.426590366469583,2.90155679049e-05,4.01910061619032e-06,0.0590893002803926,2.99609824846388e-07
234,"AZ","Biosphere 2 Center","Pinal",32.5786,-110.8506,1,"DFO","OIL",3.1,1852,87,1.81,0.03,132.1,0,47.9,39.1,0,0,0,0,0,0,0,0,87,0,87,0,0,0.00320371188687583,0.000344827586206897,1.5183908045977,0.0208045977011494,0.00097732181425486,0.0713282937365011,1.61987041036717e-05
235,"AZ","Black Mountain Generating Station","Mohave",35.0534,-114.1353,1,"NG","GAS",121,789835.9,87401,32.92,0.83,46984,0,0,87401,0,0,0,0,0,0,0,0,87401,0,87401,0,0,0.0824568851654779,9.49645885058523e-06,0.537568220043249,0.000376654729350923,4.16795438141011e-05,0.0594857741968933,1.05085119579903e-06
236,"AZ","Catalyst Paper Snowflake Mill","Navajo",34.5025,-110.3361,1,"SUB","COAL",70.5,1733587.2,303845.8,464.11,531.65,184882.3,296058.8,2633.6,5153.4,0,0,0,0,0,0,0,0,303845.8,0,303845.8,0,0.974371868888759,0.491994235564623,0.00174973621488268,0.608474101007814,0.00152745241171673,0.000267716559051659,0.106647245664943,0.000306676237572589
237,"AZ","Cholla","Navajo",34.9394,-110.3033,1,"SUB","COAL",1128.8,80307099.3,7121755,8737.44,6494.13,8284894.8,7116882.9,4391.7,480.4,0,0,0,0,0,0,0,0,7121755,0,7121755,0,0.999315884918816,0.720221235465634,0.000911872143874649,1.16332207440441,0.00122686613060966,0.000108800343632882,0.10316516064228,8.08662005801024e-05
238,"AZ","Cogeneration 1","Pima",32.2314,-110.9497,1,"NG","GAS",9,480622.9,56307.5,37.01,0.76,28118.6,0,0,56307.5,0,0,0,0,0,0,0,0,56307.5,0,56307.5,0,0,0.71419964485033,1.34973138569462e-05,0.499375749234116,0.00065728366558629,7.70042376257977e-05,0.0585044948961025,1.58128129142411e-06
239,"AZ","Coronado","Apache",34.5778,-109.2717,1,"SUB","COAL",821.8,69671942.5,6244275,12625.46,11722.07,7346653.9,6235971.8,8303.2,0,0,0,0,0,0,0,0,0,6244275,0,6244275,0,0.99867026996729,0.867384741812993,0.00187725076169772,1.17654233678049,0.00202192568392648,0.000181212975366662,0.10544637678216,0.000168246636728982
240,"AZ","Crosscut","Maricopa",33.44,-111.9442,0,"WAT","HYDRO",33,0,4056,0,0,0,0,0,0,0,4056,0,0,0,0,0,0,0,4056,0,4056,0,0.0140307181403072,0,0,0,NA,NA,NA
241,"AZ","Davis Dam","Mohave",35.1967,-114.5698,0,"WAT","HYDRO",254.8,0,1129158,0,0,0,0,0,0,0,1129158,0,0,0,0,0,0,0,1129158,0,1129158,0,0.50588428205845,0,0,0,NA,NA,NA
242,"AZ","Demoss Petrie","Pima",32.2511,-110.9889,1,"NG","GAS",85,80083.7,6585,1.71,0.14,4763.9,0,0,6585,0,0,0,0,0,0,0,0,6585,0,6585,0,0,0.0088436744560838,2.12604403948368e-05,0.723447228549734,0.000259681093394077,2.13526597797055e-05,0.0594865122365725,1.74817097611624e-06
243,"AZ","Desert Basin","Pinal",32.9042,-111.7889,1,"NG","GAS",646.1,9791156.6,1163967,54.81,2.94,582470.4,0,0,1163967,0,0,0,0,0,0,0,0,1163967,0,1163967,0,0,0.205653838733136,2.52584480487849e-06,0.5004183108284,4.70889638623775e-05,5.59790862705638e-06,0.059489437642127,3.00270960838273e-07
244,"AZ","Douglas","Cochise",31.3467,-109.5556,1,"DFO","OIL",21.4,7852,359,1.22,0.2,642.4,0,359,0,0,0,0,0,0,0,0,0,359,0,359,0,0,0.00191503435326249,0.000557103064066852,1.78941504178273,0.0033983286908078,0.000155374426897606,0.0818135506877229,2.54712175241977e-05
245,"AZ","Dry Lake Wind II LLC","Navajo",35.4028,-110.3133,0,"WND","WIND",65.1,0,16139,0,0,0,0,0,0,0,0,0,16139,0,0,0,0,0,16139,0,16139,0,0.0283003317691784,0,0,0,NA,NA,NA
246,"AZ","Dry Lake Wind LLC","Navajo",34.5372,-110.4217,0,"WND","WIND",63,0,118777,0,0,0,0,0,0,0,0,0,118777,0,0,0,0,0,118777,0,118777,0,0.21522251214032,0,0,0,NA,NA,NA
247,"AZ","Gila River Power Station","Maricopa",32.9761,-112.694,1,"NG","GAS",2476,44985721.3,5884547,296.94,13.5,2676165.2,0,0,5884547,0,0,0,0,0,0,0,0,5884547,0,5884547,0,0,0.271305307204875,2.29414430711489e-06,0.454778456183628,5.04609785596071e-05,6.60076111750597e-06,0.0594892139697669,3.00095221547554e-07
248,"AZ","Glen Canyon Dam","Coconino",36.9373,-111.4838,0,"WAT","HYDRO",1312,0,3671552,0,0,0,0,0,0,0,3671552,0,0,0,0,0,0,0,3671552,0,3671552,0,0.31945650963359,0,0,0,NA,NA,NA
249,"AZ","Griffith Energy LLC","Mohave",35.0517,-114.1334,1,"NG","GAS",654.4,10366730.3,1413714,46.81,3.11,616720,0,0,1413714,0,0,0,0,0,0,0,0,1413714,0,1413714,0,0,0.24661197541615,2.19987918348407e-06,0.436240993581446,3.31113648163631e-05,4.51540636684645e-06,0.0594903100739488,2.99998158532204e-07
250,"AZ","H Wilson Sundt Generating Station","Pima",32.16,-110.9047,1,"BIT","GAS",558.5,10095437.3,856436,1583.8,1738.91,821813,411269.8,0,445166.2,0,0,0,0,0,0,0,0,856436,0,856436,0,0.480210780490311,0.17505222321695,0.00203040273879192,0.959573161333713,0.00184929171590171,0.000156882753360273,0.0814043984008499,0.000172247119993504
251,"AZ","Harquahala Generating Project","Maricopa",33.4759,-113.1133,1,"NG","GAS",1325.1,12011567.4,1692211,48.9,3.6,714558.2,0,0,1692211,0,0,0,0,0,0,0,0,1692211,0,1692211,0,0,0.14578127815976,2.12739427884584e-06,0.422263062939551,2.88971056209893e-05,4.07107568659191e-06,0.0594891720792409,2.99711093491429e-07
252,"AZ","Headgate Rock","La Paz",34.1678,-114.2744,0,"WAT","HYDRO",19.5,0,77910,0,0,0,0,0,0,0,77910,0,0,0,0,0,0,0,77910,0,77910,0,0.456094134176326,0,0,0,NA,NA,NA
253,"AZ","Hoover Dam","Mohave",36.014,-114.7384,0,"WAT","HYDRO",1039.4,0,1517486,0,0,0,0,0,0,0,1517486,0,0,0,0,0,0,0,1517486,0,1517486,0,0.166662493201645,0,0,0,NA,NA,NA
254,"AZ","Horse Mesa","Maricopa",33.5907,-111.344,0,"WAT","HYDRO",129.5,0,145079,0,0,0,0,0,0,0,145079,0,0,0,0,0,0,0,145079,0,145079,0,0.127888260080041,0,0,0,NA,NA,NA
255,"AZ","Ina Road Water Pollution Control Fac","Pima",32.3639,-111.1958,1,"NG","GAS",4.2,89590,15964.2,45.35,0.12,3919.2,0,0,11936.9,0,0,4027.3,0,0,0,0,0,11936.9,4027.3,15964.2,0,0,0.433904109589041,7.51681888224903e-06,0.245499304694253,0.00284073113591661,0.000506194887822302,0.0437459537894854,1.33943520482197e-06
256,"AZ","Kyrene","Maricopa",33.3544,-111.9364,1,"NG","GAS",573.7,2983780.5,380833,26.84,0.95,177467.2,0,0,380833,0,0,0,0,0,0,0,0,380833,0,380833,0,0,0.0757784325570697,2.49453172387897e-06,0.465997431945236,7.0477085756749e-05,8.99529975479094e-06,0.0594772973414097,3.18388031559292e-07
257,"AZ","Maricopa Solar","Maricopa",33.5581,-112.2186,0,"SUN","SOLAR",1.5,0,2304,0,0,0,0,0,0,0,0,0,0,2304,0,0,0,0,2304,0,2304,0,0.175342465753425,0,0,0,NA,NA,NA
258,"AZ","Mesquite Generating Station","Maricopa",33.344,-112.8535,1,"NG","GAS",1383.2,56167639.1,7602046,241.43,16.84,3341380.9,0,0,7602046,0,0,0,0,0,0,0,0,7602046,0,7602046,0,0,0.627395510641725,2.21519312037838e-06,0.439537053577419,3.17585555257098e-05,4.29838255387879e-06,0.059489431166068,2.99816767623405e-07
259,"AZ","Mormon Flat","Maricopa",33.5536,-111.4431,0,"WAT","HYDRO",63.5,0,76635,0,0,0,0,0,0,0,76635,0,0,0,0,0,0,0,76635,0,76635,0,0.137768309783195,0,0,0,NA,NA,NA
260,"AZ","Navajo","Coconino",36.9047,-111.3886,1,"BIT","COAL",2409.3,173473614.9,16429593,24426.62,5097.77,17896434.3,16397840.4,31752.6,0,0,0,0,0,0,0,0,0,16429593,0,16429593,0,0.998067353220497,0.778451963254262,0.000310279749474013,1.08928044048322,0.00148674528942987,0.000140808848735186,0.103165166128097,2.93864286101298e-05
261,"AZ","Nelson Plant Generators","Yavapai",35.5186,-113.3108,1,"DFO","OIL",2.2,2669,314,3.25,0.07,218.4,0,314,0,0,0,0,0,0,0,0,0,314,0,314,0,0,0.0162930676629307,0.000222929936305733,0.695541401273885,0.0103503184713376,0.00121768452603972,0.0818284001498689,2.62270513300862e-05
262,"AZ","North Loop","Pima",32.401,-111.1262,1,"NG","GAS",107.8,10414,605,1.44,0.02,609.3,0,0,605,0,0,0,0,0,0,0,0,605,0,605,0,0,0.000640667225794427,3.30578512396694e-05,1.00710743801653,0.0023801652892562,0.000138275398502017,0.0585077779911657,1.92049164586134e-06
263,"AZ","Ocotillo","Maricopa",33.4225,-111.9122,0.5,"NG","GAS",334,739529.8,55777,58.6,0.31,43934.9,0,0,55448,0,0,0,0,329,0,0,0,55448,329,55448,329,0,0.0190635851584502,5.55784642415333e-06,0.787688473743658,0.0010506122595335,7.92395384202232e-05,0.0594092354358134,4.191852715063e-07
264,"AZ","Palo Verde","Maricopa",33.3881,-112.8617,0,"NUC","NUCLEAR",4209.3,0,31199935,0,0,0,0,0,0,31199935,0,0,0,0,0,0,0,31199935,0,0,31199935,0,0.846135085530875,0,0,0,NA,NA,NA
265,"AZ","Prescott Airport","Yavapai",34.6584,-112.4008,0,"SUN","SOLAR",2.1,0,5561,0,0,0,0,0,0,0,0,0,0,5561,0,0,0,0,5561,0,5561,0,0.302293976951511,0,0,0,NA,NA,NA
266,"AZ","Red Hawk","Maricopa",33.33,-112.84,1,"NG","GAS",1136,25228488.5,3376012,155.46,7.57,1500821.6,0,0,3376012,0,0,0,0,0,0,0,0,3376012,0,3376012,0,0,0.33925131841276,2.24229060797177e-06,0.444554580967129,4.60484145198536e-05,6.16208141046579e-06,0.059489160438605,3.00057611457777e-07
267,"AZ","Roger Road WWTP","Pima",32.2894,-111.0331,0,"SUN","SOLAR",1.1,0,683,0,0,0,0,0,0,0,0,0,0,683,0,0,0,0,683,0,683,0,0.0708800332088003,0,0,0,NA,NA,NA
268,"AZ","Roosevelt","Maricopa",33.6702,-111.1618,0,"WAT","HYDRO",36,0,129529,0,0,0,0,0,0,0,129529,0,0,0,0,0,0,0,129529,0,129529,0,0.410733764586504,0,0,0,NA,NA,NA
269,"AZ","Saguaro","Pinal",32.5517,-111.3,0.5,"NG","GAS",435.5,93343.4,8741,1.84,0.03,5553.4,0,0,8373,0,0,0,0,368,0,0,0,8373,368,8373,368,0,0.00229123088456558,3.43210159020707e-06,0.635327765701865,0.000210502230866034,1.97121596170699e-05,0.0594942974007803,3.21393906800052e-07
270,"AZ","Santan","Maricopa",33.3333,-111.751,1,"NG","GAS",1326,13602762.4,1919121,107.74,4.08,809213.3,0,0,1919121,0,0,0,0,0,0,0,0,1919121,0,1919121,0,0,0.165216998285089,2.1259732971501e-06,0.421658300857528,5.61402850575863e-05,7.92045004035357e-06,0.0594888946968595,2.99939077080402e-07
271,"AZ","Snowflake White Mountain Power LLC","Navajo",34.4917,-110.3211,1,"WDS","BIOMASS",27.2,1889933.8,157559,206.95,39.9,6109.1,0,0,2990.9,0,0,154568.1,0,0,0,0,0,2990.9,154568.1,157559,0,0,0.661256882890142,0.000253238469398765,0.0387734118647618,0.00131347622160587,0.000109501189935859,0.00323244126328658,2.11118505843961e-05
272,"AZ","South Consolidated","Maricopa",33.4672,-111.7789,0,"WAT","HYDRO",1.4,0,2085,0,0,0,0,0,0,0,2085,0,0,0,0,0,0,0,2085,0,2085,0,0.170009784735812,0,0,0,NA,NA,NA
273,"AZ","South Point Energy Center","Mohave",34.8678,-114.5317,1,"NG","GAS",708,12961429.8,1762385,66.75,3.89,771066.2,0,0,1762385,0,0,0,0,0,0,0,0,1762385,0,1762385,0,0,0.284160313959188,2.20723621683117e-06,0.437512915736346,3.78748116898408e-05,5.14989480558696e-06,0.0594892856650738,3.00121210393008e-07
274,"AZ","Springerville","Apache",34.3186,-109.1636,0.5,"SUB","COAL",1758.9,106976586.5,11129391,6535,6738.49,11273942.9,11105981.2,17591.8,0,0,0,0,0,5818,0,0,0,11123573,5818,11123573,5818,0.997896578527972,0.722314187649971,0.000605467990117339,1.01298830277416,0.000587183970803074,6.10881335234977e-05,0.105387012886226,6.29903254578047e-05
275,"AZ","Stewart Mountain","Maricopa",33.5661,-111.536,0,"WAT","HYDRO",13,0,37391,0,0,0,0,0,0,0,37391,0,0,0,0,0,0,0,37391,0,37391,0,0.328336845802599,0,0,0,NA,NA,NA
276,"AZ","Sundance","Pinal",32.9285,-111.5899,1,"NG","GAS",450,1186790.9,107797,15.85,0.36,70602.7,0,0,107797,0,0,0,0,0,0,0,0,107797,0,107797,0,0,0.027345763571791,3.33961056430142e-06,0.654959785522788,0.000147035631789382,1.3355343388629e-05,0.05949042919018,3.03339029647093e-07
277,"AZ","Tri Cities","Maricopa",33.4833,-111.8172,1,"LFG","BIOMASS",5,359304,24384,0,0,0,0,0,0,0,0,24384,0,0,0,0,0,0,24384,24384,0,0,0.556712328767123,0,0,0,0,0,0
278,"AZ","UASTP Solar Facility","Pima",32.0989,-110.8106,0,"SUN","SOLAR",1.2,0,52,0,0,0,0,0,0,0,0,0,0,52,0,0,0,0,52,0,52,0,0.00494672754946728,0,0,0,NA,NA,NA
279,"AZ","Valencia","Santa Cruz",31.3633,-110.9315,1,"NG","GAS",104.4,341786,22854,47.17,0.59,20001.2,0,14.5,22839.5,0,0,0,0,0,0,0,0,22854,0,22854,0,0,0.0249895029654123,2.58160497068347e-05,0.875172836264986,0.00206397129605321,0.000138010333951654,0.058519658499763,1.72622635216188e-06
280,"AZ","Waddell","Maricopa",33.8452,-112.271,0,"WAT","HYDRO",40,0,40309,0,0,0,0,0,0,0,40309,0,0,0,0,0,0,0,40309,0,40309,0,0.115037100456621,0,0,0,NA,NA,NA
281,"AZ","West Phoenix","Maricopa",33.4417,-112.1583,1,"NG","GAS",1206.8,11411237,1719691,124.26,3.52,678776,0,0,1719691,0,0,0,0,0,0,0,0,1719691,0,1719691,0,0,0.162671327470059,2.04687935216268e-06,0.39470811907488,7.22571671306066e-05,1.0889266430975e-05,0.0594831217684814,3.08467872501465e-07
282,"AZ","Yucca","Yuma",32.7214,-114.7097,1,"NG","GAS",385.5,4586885.1,421666,261.29,1.38,272893.4,0,1081.7,420584.3,0,0,0,0,0,0,0,0,421666,0,421666,0,0,0.124864820046314,3.27273244700782e-06,0.647179046923394,0.000619661058752662,5.69645836561287e-05,0.0594942742298036,3.00857765109486e-07
283,"AZ","Yuma Cogeneration Associates","Yuma",32.7298,-114.6641,1,"NG","GAS",62.6,1357368.2,187909,104.52,2.34,79412.1,0,0,187909,0,0,0,0,0,0,0,0,187909,0,187909,0,0,0.342664522152684,1.24528362132734e-05,0.42260934814192,0.000556226684192881,7.7001951276006e-05,0.0585044647428752,1.72392428229864e-06
284,"CA","85 A","Kern",35.1011,-118.3372,0,"WND","WIND",14.1,0,20673,0,0,0,0,0,0,0,0,0,20673,0,0,0,0,0,20673,0,20673,0,0.167371028854561,0,0,0,NA,NA,NA
285,"CA","85 B","Kern",35.1011,-118.3372,0,"WND","WIND",21.2,0,29408,0,0,0,0,0,0,0,0,0,29408,0,0,0,0,0,29408,0,29408,0,0.158352718187301,0,0,0,NA,NA,NA
286,"CA","A G Wishon","Madera",37.2325,-119.5203,0,"WAT","HYDRO",12.8,0,89863,0,0,0,0,0,0,0,89863,0,0,0,0,0,0,0,89863,0,89863,0,0.801432291666667,0,0,0,NA,NA,NA
287,"CA","A W Hoch","Imperial",33.1646,-115.616,0,"GEO","GEOTHERMAL",49,0,350000,0,61.25,10500,0,0,0,0,0,0,0,0,350000,0,0,0,350000,0,350000,0,0.815394651011089,0.000175,0.03,0,NA,Inf,Inf
288,"CA","ACE Cogeneration Facility","San Bernardino",35.7632,-117.3847,1,"BIT","COAL",108,7496063.3,783630,284.85,5506.77,774616.6,782729.3,0,900.7,0,0,0,0,0,0,0,0,783630,0,783630,0,0.998850605515358,0.828291476407915,0.00702725776195398,0.988497888033893,0.000363500631675663,3.79999459182795e-05,0.103336453949102,0.000734621597979302
289,"CA","Aera San Ardo Cogen Facility","Monterey",35.9375,-120.8522,1,"NG","GAS",6.2,247035.3,45980,11.36,0.39,14452.7,0,0,45980,0,0,0,0,0,0,0,0,45980,0,45980,0,0,0.846590072175578,8.48194867333623e-06,0.314325793823401,0.000247063940843845,4.59853308413818e-05,0.0585045942826794,1.57872174543476e-06
290,"CA","Aeroturbine","Riverside",33.875,-116.625,0,"WND","WIND",4.7,0,7257,0,0,0,0,0,0,0,0,0,7257,0,0,0,0,0,7257,0,7257,0,0.176260565432818,0,0,0,NA,NA,NA
291,"CA","AES Alamitos LLC","Los Angeles",33.7688,-118.1009,1,"NG","GAS",1922,10009533.1,881390,72.3,3,595368.2,0,0,881390,0,0,0,0,0,0,0,0,881390,0,881390,0,0,0.0523492699290598,3.40371458718615e-06,0.67548780902892,8.20295215511862e-05,7.22311413306581e-06,0.0594801170096535,2.99714279380324e-07
292,"CA","AES Huntington Beach LLC","Orange",33.6436,-117.9788,1,"NG","GAS",888,10604651.1,931672,59.2,3.18,630772.7,0,0,931672,0,0,0,0,0,0,0,0,931672,0,931672,0,0,0.119769426961208,3.41321838586971e-06,0.677033011617822,6.35416756111593e-05,5.58245617340489e-06,0.0594807593434168,2.99868422828168e-07
293,"CA","AES Redondo Beach LLC","Los Angeles",33.8504,-118.395,1,"NG","GAS",1316.4,1698335.4,134574,34.81,0.23,101015.4,0,0,134574,0,0,0,0,0,0,0,0,134574,0,134574,0,0,0.0116699550038919,1.70909685377562e-06,0.75063087966472,0.000258668093390997,2.04965403182434e-05,0.059479064029402,1.35426724308991e-07
294,"CA","Agnews Power Plant","Santa Clara",37.4058,-121.9272,1,"NG","GAS",32,1741205,209901,47.88,3,101868.3,0,0,209901,0,0,0,0,0,0,0,0,209901,0,209901,0,0,0.748790667808219,1.42924521560164e-05,0.485315934654909,0.000228107536410022,2.7498198086957e-05,0.0585044839636918,1.72294474229054e-06
295,"CA","Agua Mansa Power Plant","San Bernardino",34.0414,-117.3603,1,"NG","GAS",60.5,305808.7,29520,2.74,0.09,18192.8,0,0,29520,0,0,0,0,0,0,0,0,29520,0,29520,0,0,0.0557002151024567,3.04878048780488e-06,0.616287262872629,9.28184281842818e-05,8.95984973612589e-06,0.0594907862333544,2.94301633668368e-07
296,"CA","Aidlin Geothermal Power Plant","Sonoma",38.8339,-122.881,0,"GEO","GEOTHERMAL",25,0,148961,0.08,0.02,6613.9,0,0,0,0,0,0,0,0,148961,0,0,0,148961,0,148961,0,0.680187214611872,1.34263330670444e-07,0.0444002121360625,5.37053322681776e-07,Inf,Inf,Inf
297,"CA","Alameda","Alameda",37.7761,-122.2536,1,"NG","GAS",54.8,3624,212,0.17,0.01,212,0,0,212,0,0,0,0,0,0,0,0,212,0,212,0,0,0.000441622504416225,4.71698113207547e-05,1,0.00080188679245283,4.69094922737307e-05,0.0584988962472406,2.75938189845475e-06
298,"CA","Alamo","Los Angeles",34.8158,-118.6867,0,"WAT","HYDRO",19.6,0,78171,0,0,0,0,0,0,0,78171,0,0,0,0,0,0,0,78171,0,78171,0,0.455287251887056,0,0,0,NA,NA,NA
299,"CA","Algonquin Power Sanger LLC","Fresno",36.6842,-119.5522,1,"NG","GAS",61.5,956592,129557.1,26.31,1.84,55964.9,0,0,129557.1,0,0,0,0,0,0,0,0,129557.1,0,129557.1,0,0,0.240481679474329,1.42022320660157e-05,0.431970922473566,0.000203076481335257,2.75038888052587e-05,0.0585044616722699,1.92349507418001e-06
300,"CA","Aliso Water Management Agency","Orange",33.5244,-117.7092,1,"DG","BIOMASS",1.2,38823.2,6425,1.5,0.02,648.7,0,0,1834.9,0,0,4590.1,0,0,0,0,0,1834.9,4590.1,6425,0,0,0.611206240487062,3.11284046692607e-06,0.100964980544747,0.000233463035019455,3.86366914628367e-05,0.0167090811679614,5.15155886171155e-07
301,"CA","Almond Power Plant","Stanislaus",37.5739,-120.9854,1,"NG","GAS",49.5,498645,45476,4.22,0.15,29661.2,0,0,45476,0,0,0,0,0,0,0,0,45476,0,45476,0,0,0.104875236382086,3.29844313484036e-06,0.652238543407512,9.27962001935087e-05,8.46293455263765e-06,0.0594836005575109,3.00815209216978e-07
302,"CA","Alta Powerhouse","Placer",39.216,-120.8035,0,"WAT","HYDRO",2,0,3594,0,0,0,0,0,0,0,3594,0,0,0,0,0,0,0,3594,0,3594,0,0.20513698630137,0,0,0,NA,NA,NA
303,"CA","Altamont Gas Recovery","Alameda",37.745,-121.6344,1,"LFG","BIOMASS",8.6,879237,50141,0,0,0,0,0,0,0,0,50141,0,0,0,0,0,0,50141,50141,0,0,0.665564935754487,0,0,0,0,0,0
304,"CA","Altamont Midway Ltd","San Joaquin",37.7392,-121.4322,0,"WND","WIND",10.9,0,7400,0,0,0,0,0,0,0,0,0,7400,0,0,0,0,0,7400,0,7400,0,0.0774998952704118,0,0,0,NA,NA,NA
305,"CA","Altamont Pass Windplant","Alameda",37.7341,-121.6516,0,"WND","WIND",332.5,0,506809,0,0,0,0,0,0,0,0,0,506809,0,0,0,0,0,506809,0,506809,0,0.173999725340749,0,0,0,NA,NA,NA
306,"CA","Altech","San Joaquin",37.7392,-121.4322,0,"WND","WIND",10.5,0,12252,0,0,0,0,0,0,0,0,0,12252,0,0,0,0,0,12252,0,12252,0,0.133202870189172,0,0,0,NA,NA,NA
307,"CA","Altech III","Riverside",33.9603,-116.5364,0,"WND","WIND",25.1,0,45163,0,0,0,0,0,0,0,0,0,45163,0,0,0,0,0,45163,0,45163,0,0.20540213574924,0,0,0,NA,NA,NA
308,"CA","Amedee Geothermal Venture I","Lassen",40.3008,-120.1951,0,"GEO","GEOTHERMAL",3,0,1048,0,0,0,0,0,0,0,0,0,0,0,1048,0,0,0,1048,0,1048,0,0.0398782343987823,0,0,0,NA,NA,NA
309,"CA","AMERESCO Chiquita Canyon","Los Angeles",34.45,-118.69,1,"LFG","BIOMASS",9.2,62964,5397,0,0,0,0,0,0,0,0,5397,0,0,0,0,0,0,5397,5397,0,0,0.0669669446098868,0,0,0,0,0,0
310,"CA","AMERESCO Keller Canyon","Contra Costa",37.97,-121.86,1,"LFG","BIOMASS",3.8,315058,29841,0,0,0,0,0,0,0,0,29841,0,0,0,0,0,0,29841,29841,0,0,0.896449170872386,0,0,0,0,0,0
311,"CA","AMERESCO Ox Mountain","San Mateo",37.5,-122.4,1,"LFG","BIOMASS",11.4,909110,86935,0,0,0,0,0,0,0,0,86935,0,0,0,0,0,0,86935,86935,0,0,0.87053392613955,0,0,0,0,0,0
312,"CA","AMERESCO Santa Cruz Energy","Santa Cruz",36.9178,-121.8156,1,"LFG","BIOMASS",3,239055,20490,0,0,0,0,0,0,0,0,20490,0,0,0,0,0,0,20490,20490,0,0,0.779680365296804,0,0,0,0,0,0
313,"CA","American Canyon Power Plant","Napa",38.51,-122.3255,1,"LFG","BIOMASS",1.6,91484,5890,0,0,0,0,0,0,0,0,5890,0,0,0,0,0,0,5890,5890,0,0,0.42023401826484,0,0,0,0,0,0
314,"CA","Ampersand Chowchilla Biomass LLC","Madera",37.1053,-120.2489,1,"WDS","BIOMASS",12.5,397443.2,16828,1.75,1,864.4,0,0,0,0,0,16828,0,0,0,0,0,0,16828,16828,0,0,0.153680365296804,5.94247682434038e-05,0.0513667696695983,0.000103993344425957,4.40314490221496e-06,0.00217490197341406,2.51608280126569e-06
315,"CA","Anaheim GT","Orange",33.8539,-117.8561,1,"NG","GAS",49.2,416402.3,41391,5.12,0.13,24770.6,0,0,41391,0,0,0,0,0,0,0,0,41391,0,41391,0,0,0.0960365853658537,3.14077939648716e-06,0.598453770143268,0.000123698388538571,1.22958014400977e-05,0.0594871834281415,3.12198083439981e-07
316,"CA","Angels","Calaveras",38.0572,-120.5341,0,"WAT","HYDRO",1.4,0,6658,0,0,0,0,0,0,0,6658,0,0,0,0,0,0,0,6658,0,6658,0,0.542889758643183,0,0,0,NA,NA,NA
317,"CA","Argus Cogen Plant","San Bernardino",35.765,-117.3833,1,"BIT","COAL",62.5,1961132.7,352149.2,228.69,20.41,201889.3,348744.1,0,3405.2,0,0,0,0,0,0,0,0,352149.2,0,352149.2,0,0.990330518995926,0.643194885844749,5.795838809232e-05,0.573306144100285,0.000649412237767401,0.000116611180875216,0.102945251996461,1.0407250870887e-05
318,"CA","Ausra Kimberlina Solar Generation","Kern",35.5667,-119.2,0,"SUN","SOLAR",5,0,41,0,0,0,0,0,0,0,0,0,0,41,0,0,0,0,41,0,41,0,0.000936073059360731,0,0,0,NA,NA,NA
319,"CA","B Braun Medical","Orange",33.6886,-117.8336,1,"NG","GAS",6.1,241418.5,43152,11.11,0.42,14124.1,0,0,43152,0,0,0,0,0,0,0,0,43152,0,43152,0,0,0.807545474960701,9.73303670745273e-06,0.327310437523174,0.000257461994809047,4.60196712348059e-05,0.0585046299268697,1.73971754443011e-06
320,"CA","Badger Creek Cogen","Kern",35.3731,-119.0186,1,"NG","GAS",46,2562132.6,381194,117.86,4.31,149896.2,0,0,381194,0,0,0,0,0,0,0,0,381194,0,381194,0,0,0.945984713122891,1.13065788023946e-05,0.393228120064849,0.000309186398526734,4.60007417258576e-05,0.05850446616229,1.68219240487397e-06
321,"CA","Balch 1","Fresno",36.68,-119.3917,0,"WAT","HYDRO",31,0,145051,0,0,0,0,0,0,0,145051,0,0,0,0,0,0,0,145051,0,145051,0,0.534139784946237,0,0,0,NA,NA,NA
322,"CA","Balch 2","Fresno",36.9088,-119.0879,0,"WAT","HYDRO",97.2,0,557545,0,0,0,0,0,0,0,557545,0,0,0,0,0,0,0,557545,0,557545,0,0.654801332281038,0,0,0,NA,NA,NA
323,"CA","Barre Substation Peaker Power Unit","Orange",33.8073,-117.9833,1,"NG","GAS",49.8,75763.6,6446,0.48,0.02,4507.2,0,0,6446,0,0,0,0,0,0,0,0,6446,0,6446,0,0,0.0147759989730612,3.10269934843314e-06,0.699224325162892,7.44647843623953e-05,6.33549620134207e-06,0.059490309330602,2.63979008389253e-07
324,"CA","Bear Canyon Power Plant","Lake",38.7628,-122.6954,0,"GEO","GEOTHERMAL",24.4,0,103615,0.05,0.01,4600.5,0,0,0,0,0,0,0,0,103615,0,0,0,103615,0,103615,0,0.484762145370162,9.6511122906915e-08,0.0443999420933263,4.82555614534575e-07,Inf,Inf,Inf
325,"CA","Bear Creek","Shasta",40.5219,-121.8547,0,"WAT","HYDRO",3.2,0,1814,0,0,0,0,0,0,0,1814,0,0,0,0,0,0,0,1814,0,1814,0,0.0647117579908676,0,0,0,NA,NA,NA
326,"CA","Bear Mountain Cogen","Kern",35.4192,-118.9263,1,"NG","GAS",46,2786380.4,398488,128.17,4.69,163015.7,0,0,398488,0,0,0,0,0,0,0,0,398488,0,398488,0,0,0.988902124280326,1.17694886671619e-05,0.409085593543595,0.000321640802232439,4.59987444643237e-05,0.0585044669421304,1.68318726330403e-06
327,"CA","Bear Valley","San Diego",33.11,-117.0697,0,"WAT","HYDRO",1.4,0,452,0,0,0,0,0,0,0,452,0,0,0,0,0,0,0,452,0,452,0,0.0368558382257012,0,0,0,NA,NA,NA
328,"CA","Bear Valley Power Plant","San Bernardino",34.2506,-116.9025,1,"NG","GAS",8.4,6548,590,0.89,0.01,383.1,0,0,590,0,0,0,0,0,0,0,0,590,0,590,0,0,0.00801804740160904,1.69491525423729e-05,0.649322033898305,0.00150847457627119,0.000135919364691509,0.0585064141722663,1.5271838729383e-06
329,"CA","Beardsley","Tuolumne",38.2046,-120.0768,0,"WAT","HYDRO",10,0,54763,0,0,0,0,0,0,0,54763,0,0,0,0,0,0,0,54763,0,54763,0,0.625148401826484,0,0,0,NA,NA,NA
330,"CA","Belden","Plumas",39.9866,-121.2843,0,"WAT","HYDRO",117.9,0,250129,0,0,0,0,0,0,0,250129,0,0,0,0,0,0,0,250129,0,250129,0,0.242184383484185,0,0,0,NA,NA,NA
331,"CA","Berry Cogen","Kern",35.1478,-119.4572,1,"NG","GAS",38.7,1673542.4,304769,76.98,2.83,97909.7,0,0,304769,0,0,0,0,0,0,0,0,304769,0,304769,0,0,0.898991776102321,9.28572131680059e-06,0.321258723820336,0.000252584744511417,4.59982370330145e-05,0.0585044633467309,1.6910237828453e-06
332,"CA","Berry Cogen Tanne Hills 18","Kern",35.1478,-119.4572,1,"NG","GAS",17.6,684859.8,126393,31.5,1.16,40067.4,0,0,126393,0,0,0,0,0,0,0,0,126393,0,126393,0,0,0.819796855541719,9.1777234498746e-06,0.317006479789229,0.000249222662647457,4.59948152892023e-05,0.0585045289561455,1.6937773249357e-06
333,"CA","Berry Placerita Cogen","Los Angeles",34.3124,-118.4995,1,"NG","GAS",42.8,1739652,329500,80.02,2.97,101777.4,0,0,329500,0,0,0,0,0,0,0,0,329500,0,329500,0,0,0.878835403064055,9.01365705614568e-06,0.308884370257967,0.000242852807283763,4.59977052881841e-05,0.0585044595125922,1.707237999324e-06
334,"CA","Bidwell Ditch Project","Shasta",40.8014,-121.4481,0,"WAT","HYDRO",1.8,0,10583,0,0,0,0,0,0,0,10583,0,0,0,0,0,0,0,10583,0,10583,0,0.671169457128361,0,0,0,NA,NA,NA
335,"CA","Big Creek 1","Fresno",37.2039,-119.2428,0,"WAT","HYDRO",88.3,0,382375,0,0,0,0,0,0,0,382375,0,0,0,0,0,0,0,382375,0,382375,0,0.494338778655166,0,0,0,NA,NA,NA
336,"CA","Big Creek 2","Fresno",37.2,-119.3069,0,"WAT","HYDRO",66.4,0,360339,0,0,0,0,0,0,0,360339,0,0,0,0,0,0,0,360339,0,360339,0,0.619496822908071,0,0,0,NA,NA,NA
337,"CA","Big Creek 2A","Fresno",37.2,-119.3069,0,"WAT","HYDRO",110,0,523882,0,0,0,0,0,0,0,523882,0,0,0,0,0,0,0,523882,0,523882,0,0.543671647986717,0,0,0,NA,NA,NA
338,"CA","Big Creek 3","Fresno",37.1497,-119.3872,0,"WAT","HYDRO",174.4,0,841970,0,0,0,0,0,0,0,841970,0,0,0,0,0,0,0,841970,0,841970,0,0.551119821121863,0,0,0,NA,NA,NA
339,"CA","Big Creek 4","Madera",37.1391,-119.4894,0,"WAT","HYDRO",100,0,487279,0,0,0,0,0,0,0,487279,0,0,0,0,0,0,0,487279,0,487279,0,0.556254566210046,0,0,0,NA,NA,NA
340,"CA","Big Creek 8","Fresno",37.2096,-119.3288,0,"WAT","HYDRO",75,0,260726,0,0,0,0,0,0,0,260726,0,0,0,0,0,0,0,260726,0,260726,0,0.396843226788432,0,0,0,NA,NA,NA
341,"CA","Big Creek Water Works","Trinity",40.6175,-123.4514,0,"WAT","HYDRO",5,0,1924,0,0,0,0,0,0,0,1924,0,0,0,0,0,0,0,1924,0,1924,0,0.0439269406392694,0,0,0,NA,NA,NA
342,"CA","Big Pine","Inyo",37.1678,-118.2917,0,"WAT","HYDRO",3.2,0,8522,0,0,0,0,0,0,0,8522,0,0,0,0,0,0,0,8522,0,8522,0,0.304009703196347,0,0,0,NA,NA,NA
343,"CA","Big Valley Power LLC","Lassen",41.1327,-121.1373,1,"WDS","BIOMASS",9.3,35810.4,4080,2.49,0.29,77.9,0,0,0,0,0,4080,0,0,0,0,0,0,4080,4080,0,0,0.0500810134040359,7.1078431372549e-05,0.019093137254902,0.000610294117647059,6.95328731318276e-05,0.00217534570962625,8.0982061077229e-06
344,"CA","Biola University","Los Angeles",33.9053,-118.0175,1,"NG","GAS",2.2,116582.4,12224,15.8,0.2,6820.6,0,0,12224,0,0,0,0,0,0,0,0,12224,0,12224,0,0,0.634288086342881,1.63612565445026e-05,0.557967931937173,0.00129253926701571,0.000135526460254721,0.0585045427097058,1.7155248133509e-06
345,"CA","Bishop Creek 2","Inyo",37.2478,-118.5824,0,"WAT","HYDRO",7.3,0,35105,0,0,0,0,0,0,0,35105,0,0,0,0,0,0,0,35105,0,35105,0,0.548961656345781,0,0,0,NA,NA,NA
346,"CA","Bishop Creek 3","Inyo",37.3022,-118.5311,0,"WAT","HYDRO",7.7,0,33057,0,0,0,0,0,0,0,33057,0,0,0,0,0,0,0,33057,0,33057,0,0.490081835972247,0,0,0,NA,NA,NA
347,"CA","Bishop Creek 4","Inyo",37.3233,-118.5011,0,"WAT","HYDRO",7.7,0,50197,0,0,0,0,0,0,0,50197,0,0,0,0,0,0,0,50197,0,50197,0,0.744188459941885,0,0,0,NA,NA,NA
348,"CA","Bishop Creek 5","Inyo",37.3357,-118.481,0,"WAT","HYDRO",4.5,0,15496,0,0,0,0,0,0,0,15496,0,0,0,0,0,0,0,15496,0,15496,0,0.393099949264333,0,0,0,NA,NA,NA
349,"CA","Bishop Creek 6","Inyo",37.351,-118.4629,0,"WAT","HYDRO",1.6,0,3666,0,0,0,0,0,0,0,3666,0,0,0,0,0,0,0,3666,0,3666,0,0.261558219178082,0,0,0,NA,NA,NA
350,"CA","BKK Landfill","Los Angeles",34.0328,-117.9128,1,"LFG","BIOMASS",11.7,1148939,48699,39.07,0,0,0,0,0,0,0,48699,0,0,0,0,0,0,48699,48699,0,0,0.475149279943801,0,0,0.000802275200722807,3.40052866166089e-05,0,0
351,"CA","Black Butte","Tehama",39.7508,-122.1881,0,"WAT","HYDRO",6.1,0,18655.6,0,0,0,0,0,0,0,18655.6,0,0,0,0,0,0,0,18655.6,0,18655.6,0,0.349120443146942,0,0,0,NA,NA,NA
352,"CA","Blacksand Generating Facility","Orange",33.9328,-117.855,1,"RG","OIL",7.7,441257,5237,20.3,0,32708.3,0,5237,0,0,0,0,0,0,0,0,0,5237,0,5237,0,0,0.0776403961335468,0,6.24561772006874,0.00387626503723506,4.60049358990339e-05,0.0741252829983434,0
353,"CA","Blue Lake Power LLC","Humboldt",40.8667,-123.9833,1,"WDS","BIOMASS",13.8,547329,27680,41.05,4.65,1193.2,0,0,2,0,0,27678,0,0,0,0,0,2,27678,27680,0,0,0.22897227185494,0.000167991329479769,0.043106936416185,0.00148302023121387,7.50005937927645e-05,0.00218004162030515,8.49580416897332e-06
354,"CA","Blythe Energy LLC","Riverside",33.6157,-114.6865,1,"NG","GAS",591,9196957.2,1256998.4,46.74,2.76,547122,0,0,1256998.4,0,0,0,0,0,0,0,0,1256998.4,0,1256998.4,0,0,0.242796900231015,2.19570685213283e-06,0.435260697229209,3.71838182132929e-05,5.08211563711528e-06,0.0594894581003378,3.00099254566499e-07
355,"CA","Bolthouse S&P and Rowen Farms Solar","Los Angeles",34.5644,-117.6933,0,"SUN","SOLAR",1.2,0,2586.9,0,0,0,0,0,0,0,0,0,0,2586.9,0,0,0,0,2586.9,0,2586.9,0,0.246090182648402,0,0,0,NA,NA,NA
356,"CA","Borel","Kern",35.8056,-118.5236,0,"WAT","HYDRO",12,0,44043,0,0,0,0,0,0,0,44043,0,0,0,0,0,0,0,44043,0,44043,0,0.418978310502283,0,0,0,NA,NA,NA
357,"CA","Bottle Rock Power","Lake",38.8348,-122.7677,0,"GEO","GEOTHERMAL",55,0,67555,0.04,0.01,2999.4,0,0,0,0,0,0,0,0,67555,0,0,0,67555,0,67555,0,0.140213781652138,1.48027533121161e-07,0.0443993782843609,5.92110132484642e-07,Inf,Inf,Inf
358,"CA","Bowman","Nevada",39.4481,-120.6522,0,"WAT","HYDRO",3.6,0,15222,0,0,0,0,0,0,0,15222,0,0,0,0,0,0,0,15222,0,15222,0,0.482686453576865,0,0,0,NA,NA,NA
359,"CA","Box Canyon","Siskiyou",41.2792,-122.3292,0,"WAT","HYDRO",5,0,23656,0,0,0,0,0,0,0,23656,0,0,0,0,0,0,0,23656,0,23656,0,0.540091324200913,0,0,0,NA,NA,NA
360,"CA","BP Wilmington Calciner","Los Angeles",34.7789,-118.2256,1,"","WSTHTOTPUR",34,0,216422,0,0,0,0,0,0,0,0,0,0,0,0,0,216422,216422,0,216422,0,0,0.72663846360462,0,0,0,NA,NA,NA
361,"CA","Bradley Gas Recovery","Los Angeles",34.2356,-118.3806,1,"LFG","BIOMASS",6.5,509104,38336,0,0,0,0,0,0,0,0,38336,0,0,0,0,0,0,38336,38336,0,0,0.673270108886547,0,0,0,0,0,0
362,"CA","Broadway","Los Angeles",34.1263,-118.1494,1,"NG","GAS",75,430688.1,43025,3.72,0.12,25622.2,0,0,43025,0,0,0,0,0,0,0,0,43025,0,43025,0,0,0.0654870624048706,2.78907611853573e-06,0.595518884369553,8.64613596746078e-05,8.63734103635555e-06,0.0594913116940078,2.78623904398566e-07
363,"CA","Bucks Creek","Plumas",39.9049,-121.2831,0,"WAT","HYDRO",66,0,213296,0,0,0,0,0,0,0,213296,0,0,0,0,0,0,0,213296,0,213296,0,0.368922097689221,0,0,0,NA,NA,NA
364,"CA","Buena Vista Energy LLC","Contra Costa",37.805,-121.6672,0,"WND","WIND",38,0,89246,0,0,0,0,0,0,0,0,0,89246,0,0,0,0,0,89246,0,89246,0,0.268102619562605,0,0,0,NA,NA,NA
365,"CA","Burney Creek","Shasta",40.8528,-121.5589,0,"WAT","HYDRO",3,0,4580,0,0,0,0,0,0,0,4580,0,0,0,0,0,0,0,4580,0,4580,0,0.17427701674277,0,0,0,NA,NA,NA
366,"CA","Burney Forest Products","Shasta",40.8751,-121.7023,1,"WDS","BIOMASS",31,2801407.2,221015,154.08,23.04,7524.9,0,0,1949.9,0,0,219065.1,0,0,0,0,0,1949.9,219065.1,221015,0,0,0.813871704227427,0.000104246318123204,0.0340470103839106,0.000697147252448929,5.50009295328434e-05,0.00268611432140247,8.22443806098592e-06
367,"CA","Burney Mountain Power","Shasta",40.9094,-121.6401,1,"WDS","BIOMASS",11.4,1427888,65485,101.41,11.76,3105.4,0,0,0,0,0,65485,0,0,0,0,0,0,65485,65485,0,0,0.65574180886005,0.000179583110636024,0.0474215469191418,0.00154859891578224,7.10209764351266e-05,0.00217482043409567,8.23594007373127e-06
368,"CA","Butt Valley","Plumas",40.1151,-121.1449,0,"WAT","HYDRO",40,0,116480,0,0,0,0,0,0,0,116480,0,0,0,0,0,0,0,116480,0,116480,0,0.332420091324201,0,0,0,NA,NA,NA
369,"CA","C P Kelco San Diego Plant","San Diego",32.6947,-117.1436,1,"NG","GAS",28,470725.3,85120,21.65,0.81,27539.5,0,0,85120,0,0,0,0,0,0,0,0,85120,0,85120,0,0,0.34703196347032,9.51597744360902e-06,0.323537359022556,0.000254346804511278,4.599285400636e-05,0.0585043973629631,1.72074881039961e-06
370,"CA","Cabazon Wind Farm","Riverside",33.9189,-116.7219,0,"WND","WIND",39.7,0,87921,0,0,0,0,0,0,0,0,0,87921,0,0,0,0,0,87921,0,87921,0,0.252812187295124,0,0,0,NA,NA,NA
371,"CA","Cabazon Wind Partners","Riverside",33.9172,-116.735,0,"WND","WIND",41,0,125927,0,0,0,0,0,0,0,0,0,125927,0,0,0,0,0,125927,0,125927,0,0.350615324646397,0,0,0,NA,NA,NA
372,"CA","Calabasas Gas to Energy Facility","Los Angeles",34.1511,-118.7236,1,"LFG","BIOMASS",13.8,108987,12822,0,0,0,0,0,0,0,0,12822,0,0,0,0,0,0,12822,12822,0,0,0.106065118125869,0,0,0,0,0,0
373,"CA","California Institute of Technology","Los Angeles",34.1608,-118.1386,1,"NG","GAS",13,526072.5,79352.8,14.47,0.92,30777.6,0,0,79352.8,0,0,0,0,0,0,0,0,79352.8,0,79352.8,0,0,0.696810677906568,1.15937937917755e-05,0.387857769354074,0.00018235021322499,2.75057145165353e-05,0.0585044836975892,1.74880838667674e-06
374,"CA","Calistoga Power Plant","Lake",38.79,-122.7456,0,"GEO","GEOTHERMAL",176.4,0,538765,0.28,0.06,23921.2,0,0,0,0,0,0,0,0,538765,0,0,0,538765,0,538765,0,0.348655634247611,1.11365808840589e-07,0.0444000631072917,5.19707107922749e-07,Inf,Inf,Inf
375,"CA","CalPeak Power Border Peaker Plant","San Diego",32.5622,-116.9433,1,"NG","GAS",49.5,131285.1,12067,0.69,0.04,7719.9,0,0,12067,0,0,0,0,0,0,0,0,12067,0,12067,0,0,0.0278285134449518,3.31482555730505e-06,0.639753045495981,5.71807408635121e-05,5.25573732281881e-06,0.0588025602296072,3.04680424511235e-07
376,"CA","CalPeak Power El Cajon Peaker Plant","San Diego",32.7971,-116.972,1,"NG","GAS",48.7,153594.7,13799,0.89,0.05,8996.6,0,0,13799,0,0,0,0,0,0,0,0,13799,0,13799,0,0,0.0323455505236608,3.62345097470831e-06,0.651974780781216,6.4497427349808e-05,5.79447077275453e-06,0.0585736356788353,3.25532065885086e-07
377,"CA","CalPeak Power Enterprise Peaker Plant","San Diego",33.1221,-117.117,1,"NG","GAS",49,185324,17008,0.98,0.06,10855.1,0,0,17008,0,0,0,0,0,0,0,0,17008,0,17008,0,0,0.0396235206411332,3.5277516462841e-06,0.638234948259643,5.76199435559737e-05,5.28803608814832e-06,0.0585736332045499,3.23757311519285e-07
378,"CA","CalPeak Power Panoche Peaker Plant","Fresno",36.6531,-120.5797,1,"NG","GAS",49.5,57286,5194,0.29,0.02,3365.4,0,0,5194,0,0,0,0,0,0,0,0,5194,0,5194,0,0,0.011978229786449,3.85059684251059e-06,0.647939930689257,5.58336542164035e-05,5.0623188911776e-06,0.0587473379185141,3.49125440770869e-07
379,"CA","CalPeak Power Vaca Dixon Peaker Plant","Solano",38.3989,-121.9239,1,"NG","GAS",49.5,55329.7,5207,0.25,0.02,3225.2,0,0,5207,0,0,0,0,0,0,0,0,5207,0,5207,0,0,0.0120082099534154,3.84098329172268e-06,0.619396965623199,4.80122911465335e-05,4.51836897724007e-06,0.0582905745015787,3.61469518179206e-07
380,"CA","CalRenew-1","Fresno",36.7575,-120.3658,0,"SUN","SOLAR",5,0,7175,0,0,0,0,0,0,0,0,0,0,7175,0,0,0,0,7175,0,7175,0,0.163812785388128,0,0,0,NA,NA,NA
381,"CA","Caltech Central","Los Angeles",34.1358,-118.1267,1,"NG","GAS",1,11396,1607,0.02,0,666.7,0,0,1607,0,0,0,0,0,0,0,0,1607,0,1607,0,0,0.183447488584475,0,0.414872433105165,1.24455507156192e-05,1.75500175500176e-06,0.0585029835029835,0
382,"CA","Camanche","San Joaquin",38.2268,-121.0245,0,"WAT","HYDRO",10.8,0,41275,0,0,0,0,0,0,0,41275,0,0,0,0,0,0,0,41275,0,41275,0,0.436273888043294,0,0,0,NA,NA,NA
383,"CA","Cameron Ridge LLC","Kern",35.075,-118.3158,0,"WND","WIND",59.6,0,171708,0,0,0,0,0,0,0,0,0,171708,0,0,0,0,0,171708,0,171708,0,0.328882044681438,0,0,0,NA,NA,NA
384,"CA","Camino","El Dorado",38.8283,-120.5367,0,"WAT","HYDRO",157.8,0,390368,0,0,0,0,0,0,0,390368,0,0,0,0,0,0,0,390368,0,390368,0,0.282398967538819,0,0,0,NA,NA,NA
385,"CA","Camp Far West","Placer",39.0489,-121.3169,0,"WAT","HYDRO",7.2,0,27786,0,0,0,0,0,0,0,27786,0,0,0,0,0,0,0,27786,0,27786,0,0.440544140030441,0,0,0,NA,NA,NA
386,"CA","Cardinal Cogen","Santa Clara",37.4296,-122.1759,1,"NG","GAS",52.8,4431218.8,416565,144.65,7.65,259246.2,0,0,416565,0,0,0,0,0,0,0,0,416565,0,416565,0,0,0.900626556662516,1.83644809333477e-05,0.622342731626517,0.000347244727713562,3.26433892183342e-05,0.058504490908912,1.72638733162984e-06
387,"CA","Caribou 1","Plumas",40.0754,-121.1598,0,"WAT","HYDRO",73.8,0,99181,0,0,0,0,0,0,0,99181,0,0,0,0,0,0,0,99181,0,99181,0,0.153415067255695,0,0,0,NA,NA,NA
388,"CA","Caribou 2","Plumas",40.1742,-121.0915,0,"WAT","HYDRO",117.9,0,357165,0,0,0,0,0,0,0,357165,0,0,0,0,0,0,0,357165,0,357165,0,0.345820697828436,0,0,0,NA,NA,NA
389,"CA","Carson Cogeneration","Los Angeles",33.8759,-118.2491,1,"NG","GAS",55.8,2893953.8,347549,14.91,0.87,172181.5,0,0,347549,0,0,0,0,0,0,0,0,347549,0,347549,0,0,0.711013322204219,2.5032441468685e-06,0.49541647364832,4.2900425551505e-05,5.1521209495466e-06,0.059496976074739,3.00626775728071e-07
390,"CA","Carson Ice-Gen Project","Sacramento",38.4461,-121.4614,1,"NG","GAS",125.5,2879440.3,334469,14.16,1.73,158255.6,0,0,324124,0,0,10345,0,0,0,0,0,324124,10345,334469,0,0,0.304234204733577,5.17237770914494e-06,0.473154761726797,4.23357620586661e-05,4.91762235876187e-06,0.0549605421581409,6.00811206261161e-07
391,"CA","Castaic","Los Angeles",34.5195,-118.6049,0,"WAT","HYDRO",1331,0,241544,0,0,0,0,0,0,0,241544,0,0,0,0,0,0,0,241544,0,241544,0,0.0207163906699738,0,0,0,NA,NA,NA
392,"CA","CCCSD Wastewater Treatment Plnt","Contra Costa",37.9978,-122.0697,1,"NG","GAS",3.5,200889,23634,9.24,0.35,11752.9,0,0,23634,0,0,0,0,0,0,0,0,23634,0,23634,0,0,0.770841487279843,1.48091732250148e-05,0.497287805703647,0.000390962173140391,4.59955497812225e-05,0.0585044477298409,1.74225567353115e-06
393,"CA","CE Turbo","Imperial",33.1669,-115.5114,0,"GEO","GEOTHERMAL",11.5,0,15000,0,2.63,450,0,0,0,0,0,0,0,0,15000,0,0,0,15000,0,15000,0,0.148898153662895,0.000175333333333333,0.03,0,NA,Inf,Inf
394,"CA","Centerville","Butte",39.7888,-121.6574,0,"WAT","HYDRO",6.4,0,8809,0,0,0,0,0,0,0,8809,0,0,0,0,0,0,0,8809,0,8809,0,0.157124001141553,0,0,0,NA,NA,NA
395,"CA","Central Utilities Plant LAX","Los Angeles",33.9661,-118.3914,1,"NG","GAS",8,276222.3,47919,12.71,0.47,16160.2,0,0,47919,0,0,0,0,0,0,0,0,47919,0,47919,0,0,0.683775684931507,9.80821803460005e-06,0.337239925707966,0.000265239257914397,4.60136636325163e-05,0.0585043278547749,1.70152808082476e-06
396,"CA","Century Generating Facility","San Bernardino",34.0606,-117.3533,1,"NG","GAS",44.8,30353,1649,1.4,0.05,1775.8,0,0,1649,0,0,0,0,0,0,0,0,1649,0,1649,0,0,0.00420183056099152,3.03214069132808e-05,1.07689508793208,0.000848999393571862,4.61239416202682e-05,0.0585049253780516,1.64728362929529e-06
397,"CA","Chalk Cliff Cogen","Kern",35.0968,-119.4299,1,"NG","GAS",46,2511291.5,359363,115.52,4.23,146921.8,0,0,359363,0,0,0,0,0,0,0,0,359363,0,359363,0,0,0.891808119912646,1.17708278259031e-05,0.408839529946043,0.000321457690413315,4.60002353370766e-05,0.0585044786716317,1.6843922738559e-06
398,"CA","Chicago Park","Nevada",39.1778,-120.8897,0,"WAT","HYDRO",44,0,167567,0,0,0,0,0,0,0,167567,0,0,0,0,0,0,0,167567,0,167567,0,0.434742112909921,0,0,0,NA,NA,NA
399,"CA","Childrens Hospital","San Diego",32.7992,-117.1517,1,"NG","GAS",10,246629.7,22606,11.37,0.43,14429.9,0,0,22606,0,0,0,0,0,0,0,0,22606,0,22606,0,0,0.258059360730594,1.90214987171547e-05,0.638321684508538,0.000502963814916394,4.61015035902002e-05,0.0585083629425004,1.74350453331452e-06
400,"CA","Chili Bar","El Dorado",38.7719,-120.8129,0,"WAT","HYDRO",7,0,31785,0,0,0,0,0,0,0,31785,0,0,0,0,0,0,0,31785,0,31785,0,0.51834637964775,0,0,0,NA,NA,NA
401,"CA","Chowchilla II","Madera",37.1073,-120.2485,1,"NG","GAS",49.6,392752,37741,53.22,0.67,22977.8,0,0,37741,0,0,0,0,0,0,0,0,37741,0,37741,0,0,0.086861559139785,1.77525767732704e-05,0.608828594896797,0.00141013751622903,0.00013550535707011,0.0585046034138591,1.70591110930053e-06
402,"CA","Chuckawalla Valley State Prison","Riverside",33.5997,-114.9,0,"SUN","SOLAR",1,0,2082,0,0,0,0,0,0,0,0,0,0,2082,0,0,0,0,2082,0,2082,0,0.237671232876712,0,0,0,NA,NA,NA
403,"CA","Chula Vista I","San Diego",32.5914,-117.0586,1,"NG","GAS",44,18013.6,906,0.24,0.01,1112.4,0,0,906,0,0,0,0,0,0,0,0,906,0,906,0,0,0.0023505603985056,1.1037527593819e-05,1.22781456953642,0.000264900662251656,1.33232668650353e-05,0.0617533419194387,5.55136119376471e-07
404,"CA","City of Palo Alto","Santa Clara",37.2273,-121.6827,1,"NG","GAS",4.4,7614,672,1.03,0.01,445.5,0,0,672,0,0,0,0,0,0,0,0,672,0,672,0,0,0.0174346201743462,1.48809523809524e-05,0.662946428571429,0.0015327380952381,0.000135277121092724,0.0585106382978723,1.31337010769635e-06
405,"CA","Civic Center","Los Angeles",34.0564,-118.2436,1,"NG","GAS",34.5,866881.6,109847,26.95,1.48,50716.5,0,0,109847,0,0,0,0,0,0,0,0,109847,0,109847,0,0,0.363467010786844,1.34732855699291e-05,0.461701275410344,0.000245341247371344,3.10884439120637e-05,0.0585045293382626,1.70726890500387e-06
406,"CA","Clearwater Power Plant","Riverside",33.8912,-117.6085,1,"NG","GAS",49,10259.5,1207,0.28,0.02,600.2,0,0,1207,0,0,0,0,0,0,0,0,1207,0,1207,0,0,0.00281194669648681,1.65700082850041e-05,0.497265948632974,0.000231980115990058,2.72917783517715e-05,0.0585018763097617,1.94941273941225e-06
407,"CA","Coachella","Riverside",33.6758,-116.1714,1,"NG","GAS",92.4,41201,5100,1.9,0.08,2410.4,0,0,5100,0,0,0,0,0,0,0,0,5100,0,5100,0,0,0.00630077684872205,1.56862745098039e-05,0.472627450980392,0.000372549019607843,4.61153855488944e-05,0.0585034343826606,1.94170044416398e-06
